,City,Cloudiness,Country,Date,Humidity,Lat,Lng,Max Temp,Wind Speed
0,Departamento de Maldonado,0,UY,1630018330,71,-34.6667,-54.9167,56.59,8.72
1,Longyearbyen,75,SJ,1630018537,93,78.2186,15.6401,40.84,5.75
2,Bredasdorp,100,ZA,1630018446,87,-34.5322,20.0403,47.52,8.05
3,Cape Town,75,ZA,1630018294,91,-33.9258,18.4232,49.1,3.44
4,Kapaa,27,US,1630018538,59,22.0752,-159.319,82.47,3.0
5,Rikitea,13,PF,1630018381,75,-23.1203,-134.9692,71.96,11.65
6,Katobu,100,ID,1630018538,95,-4.9408,122.5276,74.82,4.72
7,Trat,100,TH,1630018539,97,12.5,102.5,74.41,3.71
8,Norman Wells,40,CA,1630018539,52,65.282,-126.8329,69.84,8.05
9,Albany,36,US,1630018464,75,42.6001,-73.9662,84.81,5.5
10,Same,0,TZ,1630018540,68,-4.0667,37.7333,63.95,0.92
11,Santa Maria da Vitória,82,BR,1630018540,30,-13.3947,-44.1886,79.61,4.59
12,Kaitangata,100,NZ,1630018540,92,-46.2817,169.8464,44.58,7.49
13,Atuona,1,PF,1630018532,77,-9.8,-139.0333,77.31,16.37
14,Saint Paul Harbor,59,US,1630018541,76,57.79,-152.4072,57.52,6.67
15,Narsaq,38,GL,1630018541,76,60.9167,-46.05,47.23,3.15
16,Road Town,40,VG,1630018267,74,18.4167,-64.6167,86.04,9.22
17,Port Elizabeth,40,ZA,1630018542,82,-33.918,25.5701,61.09,8.05
18,Mataura,100,NZ,1630018542,96,-46.1927,168.8643,44.47,2.84
19,Pachino,0,IT,1630018543,70,36.7186,15.0907,77.04,9.64
20,Hobart,75,AU,1630018360,91,-42.8794,147.3294,46.26,0.0
21,São João da Barra,5,BR,1630018543,83,-21.6403,-41.0511,72.99,27.63
22,Te Anau,100,NZ,1630018544,96,-45.4167,167.7167,44.51,1.99
23,Port-Gentil,75,GA,1630018544,83,-0.7193,8.7815,76.96,11.5
24,Castro,92,BR,1630018544,61,-24.7911,-50.0119,62.44,3.04
25,Sabha,0,LY,1630018545,18,27.0377,14.4283,85.37,9.75
26,Changzhou,100,CN,1630018545,95,31.7833,119.9667,72.21,7.14
27,Faanui,73,PF,1630018545,59,-16.4833,-151.75,79.5,11.18
28,Porto-Novo,100,BJ,1630018546,88,6.4965,2.6036,80.42,4.03
29,Ust-Nera,99,RU,1630018546,82,64.5667,143.2,54.27,7.81
30,Alice Springs,4,AU,1630018521,24,-23.7,133.8833,56.75,0.0
31,Botwood,50,CA,1630018547,67,49.1499,-55.3482,68.9,10.47
32,San Patricio,96,US,1630018547,47,28.017,-97.5169,93.92,11.01
33,Burla,100,IN,1630018548,96,21.5,83.8667,76.05,3.02
34,Tasiilaq,100,GL,1630018548,95,65.6145,-37.6368,43.2,13.94
35,Mahébourg,75,MU,1630018548,94,-20.4081,57.7,66.49,3.44
36,Qaanaaq,100,GL,1630018549,98,77.484,-69.3632,37.96,5.82
37,Mount Gambier,90,AU,1630018549,93,-37.8333,140.7667,40.91,6.91
38,Tazovsky,95,RU,1630018549,95,67.4667,78.7,46.56,12.73
39,Fairbanks,40,US,1630018550,66,64.8378,-147.7164,56.01,5.01
40,Hithadhoo,99,MV,1630018550,75,-0.6,73.0833,81.68,10.85
41,Puerto Nariño,91,CO,1630018551,85,-3.7703,-70.3831,89.55,4.85
42,Juneau,90,US,1630018285,94,58.3019,-134.4197,60.85,3.44
43,Port Alfred,8,ZA,1630018551,90,-33.5906,26.891,62.64,13.04
44,Butaritari,89,KI,1630018552,75,3.0707,172.7902,81.99,13.85
45,Tarko-Sale,84,RU,1630018553,84,64.9225,77.785,49.86,23.6
46,Mar del Plata,0,AR,1630018538,81,-38.0023,-57.5575,46.42,4.61
47,Yellowknife,20,CA,1630018553,56,62.456,-114.3525,70.32,8.05
48,Tari,61,NG,1630018553,85,12.4086,4.4914,76.91,7.38
49,Kaoma,51,ZM,1630018554,30,-14.7833,24.8,61.34,6.4
50,Luwuk,64,ID,1630018554,84,-0.9516,122.7875,78.15,2.77
51,Upernavik,100,GL,1630018554,96,72.7868,-56.1549,38.93,9.91
52,Sitka,100,US,1630018555,84,57.0531,-135.33,59.41,4.18
53,Pevek,96,RU,1630018555,85,69.7008,170.3133,35.26,8.3
54,Puerto Ayora,69,EC,1630018555,84,-0.7393,-90.3518,75.16,7.0
55,East London,1,ZA,1630018556,67,-33.0153,27.9116,66.7,10.83
56,Broken Hill,8,AU,1630018556,61,-31.95,141.4333,46.11,6.91
57,Punta Arenas,20,CL,1630018546,75,-53.15,-70.9167,39.31,2.3
58,Turan,20,VN,1630018276,89,16.0678,108.2208,78.85,3.44
59,Busselton,35,AU,1630018557,62,-33.65,115.3333,46.09,13.2
60,Henties Bay,1,NA,1630018557,92,-22.116,14.2845,53.85,6.33
61,Mpanda,14,TZ,1630018557,37,-6.3655,31.0409,68.99,2.51
62,Saldanha,100,ZA,1630018558,81,-33.0117,17.9442,50.05,1.68
63,Bariloche,40,AR,1630018558,65,-41.1456,-71.3082,37.15,17.27
64,Eureka,15,US,1630018325,73,40.8021,-124.1637,83.68,8.99
65,Ushuaia,0,AR,1630018265,64,-54.8,-68.3,35.26,6.91
66,Kakonko,3,TZ,1630018559,39,-3.2828,30.9642,67.93,0.22
67,Dehui,5,CN,1630018559,91,44.5333,125.7,64.71,14.12
68,Mazurivka,99,UA,1630018560,63,49.2745,24.2123,57.99,3.87
69,Tuktoyaktuk,75,CA,1630018560,55,69.4541,-133.0374,66.2,9.22
70,Frontera,70,MX,1630018560,30,26.9333,-101.45,92.7,18.59
71,Yerbogachën,83,RU,1630018561,81,61.2767,108.0108,46.08,2.46
72,Bluff,98,NZ,1630018561,76,-46.6,168.3333,44.8,11.77
73,Kutno,83,PL,1630018544,83,52.2306,19.3641,55.09,3.91
74,Vostok,63,RU,1630018561,85,46.4856,135.8833,65.08,2.77
75,Ancud,87,CL,1630018562,71,-41.8697,-73.8203,45.93,9.57
76,Saint-Philippe,47,RE,1630018562,79,-21.3585,55.7679,67.55,10.83
77,Port Hedland,82,AU,1630018563,82,-20.3167,118.5667,57.25,4.61
78,Omboué,88,GA,1630018563,85,-1.5746,9.2618,75.36,6.26
79,Asău,4,RO,1630018563,81,46.4333,26.4,57.76,3.94
80,Mil'kovo,25,RU,1630018564,60,54.7167,158.6167,65.16,0.4
81,Clyde River,90,CA,1630018564,87,70.4692,-68.5914,39.43,5.75
82,Arrondissement de Dieppe,70,FR,1630018564,92,49.75,1.1667,57.22,8.03
83,Avarua,75,CK,1630018565,94,-21.2078,-159.775,68.05,2.3
84,Saint George,0,US,1630018565,13,37.1041,-113.5841,104.63,5.01
85,Fort Nelson,75,CA,1630018565,35,58.8053,-122.7002,72.99,5.75
86,Hermanus,100,ZA,1630018566,84,-34.4187,19.2345,46.9,11.61
87,Bambous Virieux,75,MU,1630018566,94,-20.3428,57.7575,66.45,3.44
88,Saskylakh,100,RU,1630018566,97,71.9167,114.0833,36.34,11.63
89,Planadas,99,CO,1630018567,82,3.197,-75.6451,70.56,2.39
90,Nikolskoye,100,RU,1630018567,76,59.7035,30.7861,57.09,8.23
91,Acajutla,51,SV,1630018568,77,13.5928,-89.8275,86.81,9.33
92,Puli,1,TW,1630018568,65,23.9664,120.9695,77.79,4.5
93,Neiafu,20,TO,1630018568,53,-18.65,-173.9833,74.08,10.36
94,Flinders,83,AU,1630018569,77,-34.5833,150.8552,57.06,3.0
95,Oktyabr'skoye,18,RU,1630018569,94,43.0645,44.7417,57.34,6.71
96,Hergla,0,TN,1630018569,100,36.0303,10.509,82.26,3.44
97,Port-de-Bouc,0,FR,1630018570,46,43.4,4.9833,75.42,23.02
98,Kumul,96,CN,1630018570,21,42.8,93.45,75.83,11.18
99,Arvika,100,SE,1630018570,85,59.6553,12.5852,56.1,14.32
100,Manicoré,0,BR,1630018571,52,-5.8092,-61.3003,91.35,3.44
101,Matagami,90,CA,1630018571,82,49.7502,-77.6328,53.71,13.8
102,Barrow,90,US,1630018572,87,71.2906,-156.7887,41.02,20.71
103,Kutum,100,SD,1630018572,54,14.2,24.6667,75.6,6.26
104,Fort Frances,90,CA,1630018316,65,48.5999,-93.4003,62.82,5.75
105,Caceres,2,ES,1630018362,32,39.522,-6.3748,76.8,1.83
106,Svetlaya,69,RU,1630018573,85,46.5389,138.3297,67.53,2.1
107,San Cristobal,87,VE,1630018573,86,7.7669,-72.225,77.18,3.91
108,Arraial do Cabo,0,BR,1630018573,78,-22.9661,-42.0278,73.36,12.66
109,Den Helder,20,NL,1630018574,81,52.9599,4.7593,62.58,5.75
110,Port Macquarie,3,AU,1630018305,45,-31.4333,152.9167,51.76,9.33
111,Nanortalik,39,GL,1630018574,88,60.1432,-45.2371,42.76,10.07
112,Vallenar,4,CL,1630018575,38,-28.5708,-70.7581,63.77,3.18
113,Carnarvon,0,AU,1630018575,74,-24.8667,113.6333,53.67,9.22
114,Polyarny,67,RU,1630018575,78,69.1989,33.4478,32.47,9.91
115,Evensk,100,RU,1630018576,99,61.95,159.2333,49.1,5.48
116,Encruzilhada do Sul,30,BR,1630018337,92,-30.5439,-52.5219,46.08,3.27
117,Kruisfontein,0,ZA,1630018576,83,-34.0033,24.7314,57.88,17.52
118,Vredendal,96,ZA,1630018576,88,-31.6683,18.5012,50.09,15.59
119,Bonavista,0,CA,1630018577,80,48.6499,-53.1147,58.12,12.91
120,Katsuura,96,JP,1630018577,86,35.1333,140.3,84.31,7.74
121,Alofi,97,NU,1630018577,73,-19.0595,-169.9187,71.49,14.97
122,Pisco,0,PE,1630018578,72,-13.7,-76.2167,64.45,20.71
123,Muros,70,ES,1630018578,91,42.7762,-9.0603,70.3,0.47
124,São Filipe,91,CV,1630018578,87,14.8961,-24.4956,78.73,8.75
125,Pemberton,100,CA,1630018579,88,50.3164,-122.8027,60.49,3.15
126,Iqaluit,90,CA,1630018579,71,63.7506,-68.5145,49.73,10.36
127,Chicama,59,PE,1630018579,78,-7.8447,-79.1469,61.34,10.47
128,Ulundi,51,ZA,1630018580,51,-28.3352,31.4162,68.61,6.2
129,Tuatapere,100,NZ,1630018580,90,-46.1333,167.6833,44.82,3.87
130,Lázaro Cárdenas,39,MX,1630018580,73,17.9583,-102.2,83.84,7.87
131,Bria,74,CF,1630018581,97,6.5423,21.9863,69.21,0.58
132,Iquique,17,CL,1630018581,80,-20.2208,-70.1431,60.84,2.19
133,Rock Sound,100,BS,1630018582,77,24.9,-76.2,82.4,13.42
134,Vaini,75,TO,1630018582,83,-21.2,-175.2,68.16,17.27
135,Heiligenhafen,96,DE,1630018582,83,54.3667,10.9833,57.94,22.59
136,Havre-St-Pierre,90,CA,1630018583,94,50.2334,-63.5986,64.76,8.05
137,Amahai,78,ID,1630018583,86,-3.3333,128.9167,78.28,2.55
138,Jamestown,39,US,1630018583,88,42.097,-79.2353,82.18,3.42
139,Oleksandrivka,100,UA,1630018584,95,48.9634,32.2349,61.72,7.0
140,Libres,22,MX,1630018584,47,19.4667,-97.6833,63.1,15.03
141,George Town,20,MY,1630018446,91,5.4112,100.3354,78.89,3.44
142,Banamba,86,ML,1630018584,92,13.55,-7.45,72.95,5.88
143,Tiksi,100,RU,1630018585,97,71.6872,128.8694,37.98,20.09
144,Fortuna,1,US,1630018585,66,40.5982,-124.1573,83.43,3.0
145,Cockburn Town,44,TC,1630018586,79,21.4612,-71.1419,82.24,18.3
146,Bethel,8,US,1630018586,81,41.3712,-73.414,85.69,3.31
147,Souillac,75,MU,1630018586,94,-20.5167,57.5167,66.58,3.44
148,Vila Franca do Campo,31,PT,1630018587,76,37.7167,-25.4333,66.61,6.08
149,Huamachuco,99,PE,1630018587,61,-7.8,-78.0667,56.89,2.64
150,Lorengau,68,PG,1630018587,80,-2.0226,147.2712,82.0,9.08
151,Kaeo,100,NZ,1630018588,93,-35.1,173.7833,59.32,14.54
152,Mossamedes,75,AO,1630018457,87,-15.1961,12.1522,60.19,6.02
153,Kulhudhuffushi,97,MV,1630018588,76,6.6221,73.07,82.71,17.83
154,Ordu,21,TR,1630018589,82,40.9086,37.6845,64.9,4.0
155,Hilo,24,US,1630018589,78,19.7297,-155.09,80.8,1.99
156,Los Llanos de Aridane,0,ES,1630018589,90,28.6585,-17.9182,71.35,6.91
157,Chapais,98,CA,1630018590,68,49.7834,-74.8492,58.78,10.63
158,Poum,9,NC,1630018590,76,-20.2333,164.0167,75.25,15.64
159,Srednekolymsk,100,RU,1630018591,55,67.45,153.6833,55.44,11.32
160,Klaksvík,100,FO,1630018591,92,62.2266,-6.589,52.72,4.5
161,Dillon,22,US,1630018591,57,34.4166,-79.3712,91.49,11.12
162,Haines Junction,100,CA,1630018592,67,60.7522,-137.5108,57.15,3.44
163,Salalah,86,OM,1630018592,89,17.0151,54.0924,77.72,6.73
164,Ribeira Grande,90,PT,1630018593,67,38.5167,-28.7,70.21,11.36
165,Severo-Kuril'sk,100,RU,1630018593,82,50.6789,156.125,56.35,3.04
166,Palmas,0,BR,1630018593,33,-10.2128,-48.3603,89.47,2.3
167,Shigony,10,RU,1630018594,55,53.3875,48.6777,57.9,9.66
168,Yeppoon,0,AU,1630018594,61,-23.1333,150.7333,62.38,6.64
169,Copiapó,0,CL,1630018594,46,-27.3667,-70.3333,53.29,4.12
170,Tongren,100,CN,1630018595,98,27.7172,109.1853,69.49,2.93
171,Beloeil,1,CA,1630018379,44,45.5668,-73.1992,89.22,1.01
172,Khatanga,93,RU,1630018595,82,71.9667,102.5,35.44,6.85
173,Kamenka,5,RU,1630018595,48,51.3223,42.7678,60.93,8.88
174,Ixtapa,75,MX,1630017788,82,20.7,-105.2,88.23,3.0
175,Uchiza,80,PE,1630018596,80,-8.4592,-76.4633,75.83,2.75
176,Sechura,90,PE,1630018596,68,-5.5569,-80.8222,68.74,18.7
177,Inhambane,0,MZ,1630018597,91,-23.865,35.3833,68.81,8.93
178,Mahibadhoo,93,MV,1630018597,76,3.7833,72.9667,82.17,12.15
179,Provideniya,0,RU,1630018597,56,64.3833,-173.3,42.91,8.95
180,Praia,75,CV,1630018598,89,14.9215,-23.5087,79.34,10.36
181,Ponta do Sol,27,PT,1630018598,75,32.6667,-17.1,73.71,5.73
182,Abbeville,99,FR,1630018598,85,50.1,1.8333,60.69,8.37
183,Saint Anthony,90,US,1630018599,77,45.0205,-93.218,71.98,5.01
184,Quijingue,34,BR,1630018599,63,-10.7525,-39.2092,72.41,10.42
185,Hobyo,16,SO,1630018600,84,5.3505,48.5268,77.27,24.18
186,Ambilobe,0,MG,1630018600,83,-13.2,49.05,63.41,4.18
187,Ndélé,62,CF,1630018600,97,8.4109,20.6473,69.55,3.2
188,Zyryanka,100,RU,1630018601,78,65.75,150.85,56.8,7.31
189,Bantogon,100,PH,1630018601,78,6.5333,124.0333,78.73,4.27
190,Oistins,40,BB,1630018601,78,13.0667,-59.5333,82.49,13.8
191,Opuwo,43,NA,1630018602,38,-18.0607,13.84,65.88,7.52
192,Chui,0,UY,1630018602,69,-33.6971,-53.4616,49.44,6.4
193,Tiznit Province,28,MA,1630018602,67,29.5833,-9.5,70.99,1.57
194,Springbok,60,ZA,1630018603,95,-29.6643,17.8865,40.96,13.51
195,Dikson,84,RU,1630018603,76,73.5069,80.5464,36.68,15.66
196,Greece,81,US,1630018603,83,43.2098,-77.6931,85.68,1.01
197,Zhigansk,99,RU,1630018604,95,66.7697,123.3711,38.84,18.86
198,Airai,12,TL,1630018604,69,-8.9266,125.4092,62.38,3.96
199,Florø,9,NO,1630018604,76,61.5996,5.0328,53.96,0.0
200,San Quintín,35,MX,1630018605,57,30.4833,-115.95,80.42,17.65
201,Esperance,85,AU,1630018605,77,-33.8667,121.9,46.24,25.77
202,Media Luna,100,CU,1630018605,90,20.1419,-77.435,75.38,7.78
203,General Roca,73,AR,1630018606,34,-39.0333,-67.5833,54.0,20.8
204,Yulara,79,AU,1630018606,36,-25.2406,130.9889,46.24,5.75
205,Zvishavane,0,ZW,1630018607,34,-20.3267,30.0665,64.06,3.87
206,Takoradze,21,GH,1630018607,88,4.8845,-1.7554,76.69,6.78
207,Taliparamba,99,IN,1630018607,94,12.05,75.35,75.51,2.04
208,Ketchikan,99,US,1630018608,92,55.3422,-131.6461,57.92,1.97
209,Dingle,77,PH,1630018608,90,10.9995,122.6711,76.5,5.95
210,Beringovskiy,7,RU,1630018608,65,63.05,179.3167,52.0,5.21
211,Belogorsk,100,RU,1630018609,95,50.9158,128.4611,62.01,8.63
212,Kamariótissa,73,GR,1630018609,69,40.4833,25.4667,77.79,2.08
213,Husavik,77,IS,1630018609,84,66.0449,-17.3389,57.11,3.22
214,Galway,8,IE,1630018610,92,53.2719,-9.0489,66.15,5.3
215,Chak Jhumra,67,PK,1630018610,35,31.5678,73.1835,88.3,5.82
216,Calabozo,59,VE,1630018611,87,8.9242,-67.4293,77.68,3.04
217,Gwadar,23,PK,1630018611,92,25.1216,62.3254,78.57,4.88
218,Avera,9,US,1630018611,48,33.194,-82.5271,91.71,4.27
219,Uglovoye,99,UA,1630018612,73,44.8215,33.6045,69.57,3.09
220,Banda Aceh,93,ID,1630018612,82,5.5577,95.3222,77.86,6.76
221,Blagoyevo,93,RU,1630018612,87,63.3667,47.9167,39.0,4.59
222,Leningradskiy,99,RU,1630018613,73,69.3833,178.4167,37.24,17.18
223,Jardín,99,CO,1630018613,94,5.599,-75.8198,62.37,2.77
224,Ponta Delgada,40,PT,1630018614,72,37.7333,-25.6667,66.92,8.05
225,College,40,US,1630018614,65,64.8569,-147.8028,55.99,5.01
226,Sambava,5,MG,1630018458,78,-14.2667,50.1667,66.25,10.07
227,Itarema,3,BR,1630018614,82,-2.9248,-39.9167,78.8,17.6
228,Ahipara,100,NZ,1630018615,93,-35.1667,173.1667,57.51,15.12
229,Ternate,14,ID,1630018615,78,0.8,127.4,80.08,3.11
230,Rairangpur,100,IN,1630018616,94,22.2676,86.1751,76.03,3.49
231,Misratah,0,LY,1630018616,55,32.3754,15.0925,83.93,12.62
232,Mana,33,GF,1630018616,81,5.6592,-53.7767,79.52,5.77
233,Myitkyina,100,MM,1630018617,99,25.3833,97.4,73.78,2.01
234,Nome,76,US,1630018617,67,64.5011,-165.4064,47.16,21.36
235,Jiazi,8,CN,1630018617,81,22.8779,116.067,80.96,5.68
236,Chokurdakh,100,RU,1630018618,59,70.6333,147.9167,52.48,13.71
237,Pasni,37,PK,1630018618,89,25.2631,63.471,78.62,9.06
238,Huarmey,32,PE,1630018618,83,-10.0681,-78.1522,63.72,12.21
239,New Norfolk,100,AU,1630018619,88,-42.7826,147.0587,45.91,1.95
240,Ambon City,40,ID,1630018619,88,-3.6954,128.1814,77.14,8.05
241,Goderich,0,CA,1630018619,73,43.7501,-81.7165,82.04,11.5
242,Sistranda,70,NO,1630018620,73,63.7256,8.834,55.9,20.71
243,Cabedelo,3,BR,1630018382,83,-6.9811,-34.8339,75.87,13.87
244,Avaré,58,BR,1630018620,47,-23.0986,-48.9258,72.21,4.7
245,Brenham,75,US,1630018621,62,30.1669,-96.3977,93.25,10.36
246,Meulaboh,100,ID,1630018621,90,4.1363,96.1285,75.49,4.21
247,Luís Correia,43,BR,1630018621,79,-2.8792,-41.6669,79.45,11.99
248,Taltal,24,CL,1630018622,74,-25.4,-70.4833,58.24,3.42
249,Grindavik,90,IS,1630018622,94,63.8424,-22.4338,57.15,25.32
250,Khovd,100,MN,1630018622,81,48.0056,91.6419,45.79,0.85
251,Bengkulu,10,ID,1630018623,85,-3.8004,102.2655,73.87,4.16
252,Margate,100,GB,1630018498,76,51.3813,1.3862,59.88,5.01
253,Codrington,12,AU,1630018623,87,-38.2667,141.9667,44.67,6.96
254,Finnsnes,78,NO,1630018624,63,69.2296,17.9811,49.96,5.26
255,Nador,0,MA,1630018517,88,35.174,-2.9287,77.07,3.44
256,Acapulco de Juárez,69,MX,1630018401,83,16.8634,-99.8901,82.56,13.62
257,Hamilton,86,US,1630018610,63,39.1834,-84.5333,80.04,5.84
258,Tigil',100,RU,1630018624,65,57.8,158.6667,59.88,9.51
259,Zaysan,1,KZ,1630018625,30,47.4667,84.8667,66.24,8.57
260,Naze,52,JP,1630018625,75,28.3667,129.4833,77.92,5.79
261,Dafeng,94,CN,1630018625,92,23.4517,108.5881,76.86,2.3
262,Roebourne,60,AU,1630018626,36,-20.7833,117.1333,71.08,11.48
263,Moa,100,CU,1630018626,82,20.6569,-74.9403,80.78,10.33
264,Kathu,78,TH,1630018626,78,7.9178,98.3332,75.02,5.91
265,Edwardsville,1,US,1630018510,75,38.8114,-89.9532,93.67,8.05
266,Altamont,12,US,1630018627,25,42.2068,-121.7372,82.89,5.99
267,Olinda,75,BR,1630018627,69,-8.0089,-34.8553,76.73,11.5
268,Agüimes,20,ES,1630018628,73,27.9054,-15.4461,70.43,16.11
269,Port Moresby,75,PG,1630018628,78,-9.4431,147.1797,81.82,11.5
270,Northam,19,GB,1630018628,95,51.0333,-4.2167,62.1,5.59
271,Aswān,0,EG,1630018629,18,24.0934,32.907,90.7,9.22
272,Thompson,40,CA,1630018629,37,55.7435,-97.8558,68.16,12.66
273,Hualmay,96,PE,1630018629,84,-11.0964,-77.6139,62.47,9.62
274,Requena,72,ES,1630018630,65,39.4883,-1.1004,70.7,2.53
275,Jumilla,9,ES,1630018630,56,38.4792,-1.325,73.35,2.57
276,Ducheng,13,CN,1630018630,95,23.2373,111.5317,77.04,2.37
277,Óbidos,45,BR,1630018631,69,-1.9175,-55.5181,81.19,3.38
278,Kiruna,90,SE,1630018631,87,67.8557,20.2251,40.12,6.91
279,Guerrero Negro,1,MX,1630018631,60,27.9769,-114.0611,82.42,16.91
280,Paso de los Toros,0,UY,1630018632,55,-32.8167,-56.5167,50.9,7.16
281,Bubaque,100,GW,1630018632,86,11.2833,-15.8333,77.13,10.74
282,Nizwá,15,OM,1630018633,50,22.9333,57.5333,85.59,0.85
283,Crawfordsville,1,US,1630018633,83,40.0411,-86.8745,85.3,0.0
284,Egvekinot,100,RU,1630018633,96,66.3167,-179.1667,35.69,5.32
285,Itacoatiara,71,BR,1630018634,55,-3.1431,-58.4442,83.68,2.66
286,Torres,94,BR,1630018634,77,-29.3353,-49.7269,57.83,10.65
287,Bathsheba,40,BB,1630018634,78,13.2167,-59.5167,83.01,13.8
288,Quillota,0,CL,1630018635,75,-32.8833,-71.2667,59.02,2.68
289,Pilāni,100,IN,1630018635,49,28.3684,75.6041,85.86,10.8
290,Talnakh,100,RU,1630018635,94,69.4865,88.3972,44.56,9.37
291,Cañazas,100,PA,1630018636,94,8.3167,-81.2167,74.37,2.77
292,Lukovetskiy,37,RU,1630018636,87,64.2956,41.9211,35.58,3.06
293,Sobolevo,100,RU,1630018636,96,54.4299,31.8996,57.22,6.4
294,Lagoa,95,PT,1630018637,67,39.05,-27.9833,68.99,15.64
295,Akdepe,0,TM,1630018637,31,42.0551,59.3788,73.4,9.62
296,Say,70,NE,1630018637,85,13.1007,2.3689,77.56,6.08
297,Kisangani,53,CD,1630018380,81,0.5167,25.2,72.59,3.13
298,Terrace Bay,98,CA,1630018638,60,48.7834,-87.1,62.22,4.09
299,Örnsköldsvik,90,SE,1630018638,81,63.2909,18.7153,51.62,9.22
300,Águilas,0,ES,1630018639,64,37.4063,-1.5829,80.33,5.01
301,Novobirilyussy,1,RU,1630018639,97,56.9514,90.6661,56.88,4.07
302,Padang,70,ID,1630018639,88,-0.9492,100.3543,75.25,3.44
303,Gikongoro,57,RW,1630018640,46,-2.464,29.5739,62.6,3.27
304,Flin Flon,40,CA,1630018640,42,54.7682,-101.865,66.04,11.5
305,Cherskiy,96,RU,1630018641,60,68.75,161.3,51.12,7.4
306,Morón,2,AR,1630018641,29,-34.6534,-58.6198,64.29,5.01
307,Kieta,99,PG,1630018641,80,-6.2167,155.6333,82.17,7.27
308,Mayo,70,US,1630018642,79,38.8876,-76.5119,89.56,8.43
309,Udachny,100,RU,1630018642,87,66.4167,112.4,37.76,12.86
310,Touros,0,BR,1630018356,79,-5.1989,-35.4608,77.9,17.27
311,Neyshabur,0,IR,1630018643,25,36.2133,58.7958,74.1,2.33
312,Rome,55,US,1630018418,55,43.2128,-75.4557,84.13,4.63
313,Ajdabiya,0,LY,1630018643,56,30.7554,20.2263,80.35,7.72
314,Cidreira,88,BR,1630018643,83,-30.1811,-50.2056,56.39,8.14
315,Thalgau,75,AT,1630018644,94,47.8333,13.25,53.78,4.61
316,Bonnyville,65,CA,1630018644,27,54.2668,-110.735,74.52,11.88
317,Abu Samrah,0,SY,1630018645,35,35.3029,37.1841,81.27,5.26
318,Carballo,91,ES,1630018645,90,43.213,-8.691,69.22,0.29
319,Katima Mulilo,4,NA,1630018645,28,-17.5,24.2667,64.49,5.82
320,Nhulunbuy,59,AU,1630018646,73,-12.2333,136.7667,79.41,9.22
321,Mogadishu,7,SO,1630018646,81,2.0371,45.3438,76.6,16.11
322,Vysokogornyy,100,RU,1630018647,91,50.1167,139.15,62.62,2.77
323,Lerwick,8,GB,1630018647,92,60.1545,-1.1494,53.6,10.58
324,Sept-Îles,90,CA,1630018382,95,50.2001,-66.3821,62.26,1.01
325,Preobrazheniye,100,RU,1630018648,88,42.9019,133.9064,70.74,3.56
326,Dicabisagan,100,PH,1630018648,89,17.0818,122.4157,77.5,4.41
327,Khromtau,5,KZ,1630018648,37,50.2503,58.4347,70.11,4.25
328,Marsh Harbour,51,BS,1630018649,76,26.5412,-77.0636,83.19,13.82
329,Seoul,90,KR,1630018393,83,37.5683,126.9778,76.51,3.44
330,Krasnaya Gora,100,RU,1630018649,98,52.9995,31.6023,60.71,4.45
331,Hong Kong,7,HK,1630018650,86,22.2855,114.1577,84.25,1.01
332,Eydhafushi,98,MV,1630018650,75,5.1033,73.0708,82.81,15.84
333,Tura,100,IN,1630018650,99,25.5198,90.2201,73.47,3.49
334,San Rafael,80,AR,1630018651,13,-34.6177,-68.3301,56.98,15.12
335,Atar,98,MR,1630018651,13,20.5169,-13.0499,102.06,5.64
336,Muhos,1,FI,1630018651,87,64.808,25.9931,44.38,5.23
337,Petropavlovka,95,RU,1630018652,80,50.6114,105.3196,47.82,5.03
338,Aranos,2,NA,1630018652,18,-24.1333,19.1167,61.86,9.04
339,Bandarbeyla,57,SO,1630018652,86,9.4942,50.8122,76.84,27.58
340,Znamenskoye,4,RU,1630018653,82,57.1281,73.8282,61.95,2.06
341,Perm,0,RU,1630018544,100,58.0174,56.2855,45.86,4.47
342,Newport,0,GB,1630018597,80,51.5877,-2.9984,60.46,9.48
343,Kushima,95,JP,1630018654,80,31.4583,131.2333,82.44,5.32
344,Lavrentiya,97,RU,1630018654,61,65.5833,-171.0,39.67,11.61
345,Kavieng,75,PG,1630018654,69,-2.5744,150.7967,84.15,9.66
346,Qadirpur Ran,6,PK,1630018655,32,30.2924,71.6712,85.89,12.48
347,Ritchie,7,ZA,1630018655,31,-29.038,24.6028,61.0,8.77
348,Sochi,22,RU,1630018655,79,43.6,39.7303,71.69,5.99
349,Hasaki,95,JP,1630018656,79,35.7333,140.8333,81.0,7.0
350,Kupang,20,ID,1630018656,78,-10.1667,123.5833,77.58,8.05
351,Mahanje,4,TZ,1630018656,62,-9.9333,35.3333,58.42,2.55
352,Alugan,99,PH,1630018657,81,12.2188,125.4808,81.5,7.07
353,Manggar,98,ID,1630018657,83,-2.8833,108.2667,78.44,9.66
354,Portland,75,US,1630018366,58,45.5234,-122.6762,79.66,1.01
355,Pangnirtung,75,CA,1630018657,93,66.1451,-65.7125,41.0,13.8
356,Tautira,36,PF,1630018658,72,-17.7333,-149.15,84.22,17.83
357,Paro,100,BT,1630018658,97,27.4305,89.4133,63.0,1.39
358,Gorno-Altaysk,1,RU,1630018628,89,51.9561,85.955,51.17,4.56
359,Perevolotskiy,49,RU,1630018659,50,51.8763,54.1938,66.18,9.82
360,Nachingwea,1,TZ,1630018659,82,-10.3833,38.7667,65.23,1.66
361,Verkhnevilyuysk,100,RU,1630018659,83,63.4453,120.3167,45.1,10.02
362,Cochrane,90,CA,1630018660,30,51.1834,-114.4687,75.38,6.91
363,Prado,1,BR,1630018660,82,-17.3411,-39.2208,73.51,11.32
364,Bonthe,99,SL,1630018660,87,7.5264,-12.505,76.93,6.73
365,Isangel,40,VU,1630018661,65,-19.55,169.2667,77.11,11.5
366,Chinique,80,GT,1630018661,66,15.0447,-91.0258,71.98,5.48
367,Lowestoft,98,GB,1630018661,88,52.4752,1.7516,57.56,13.18
368,Xichang,100,CN,1630018662,98,27.8964,102.2634,60.17,1.61
369,Mutoko,0,ZW,1630018572,51,-17.397,32.2268,56.55,4.16
370,Zhalantun,100,CN,1630018662,95,48.0,122.7167,58.64,1.63
371,Buala,72,SB,1630018663,73,-8.145,159.5921,83.57,11.01
372,Mehamn,89,NO,1630018663,64,71.0357,27.8492,49.75,11.99
373,Mulegé,2,MX,1630018663,37,26.8833,-111.9833,98.94,7.2
374,Auki,11,SB,1630018664,68,-8.7676,160.7034,83.93,5.01
375,Xining,46,CN,1630018664,59,36.6167,101.7667,48.6,2.93
376,Talsi,100,LV,1630018664,93,57.2456,22.5814,56.32,5.95
377,Mikkeli,0,FI,1630018665,82,61.6886,27.2723,53.71,5.75
378,Boulder City,0,US,1630018665,7,35.9786,-114.8325,105.26,20.31
379,Erdenet,99,MN,1630018665,85,49.0333,104.0833,43.77,3.11
380,Shache,74,CN,1630018666,28,38.4167,77.2406,73.11,5.44
381,Pozo Colorado,6,PY,1630018666,59,-23.4923,-58.7972,61.68,3.6
382,Bada,100,RU,1630018666,81,51.392,109.8717,48.4,2.77
383,Neuquén,0,AR,1630018667,26,-38.9516,-68.0591,53.49,17.27
384,Sinop Province,0,TR,1630018667,75,41.7711,34.8709,67.17,4.92
385,Kahului,6,US,1630018668,66,20.8947,-156.47,84.97,10.25
386,Oktyabr'skiy,28,RU,1630018668,64,54.4815,53.471,51.62,6.6
387,Kjøllefjord,84,NO,1630018668,68,70.9457,27.3465,49.86,9.37
388,Alaşehir,0,TR,1630018669,40,38.3508,28.5172,75.15,2.55
389,Kalmunai,100,LK,1630018669,79,7.4167,81.8167,79.52,4.65
390,Saint-Louis,14,SN,1630018669,61,16.3333,-15.0,87.44,14.7
391,Atikokan,100,CA,1630018670,77,48.7555,-91.6216,57.36,3.98
392,Santa Marta,99,CO,1630018670,79,11.2408,-74.199,83.98,4.0
393,Pringsewu,20,ID,1630018671,97,-5.3582,104.9744,70.77,2.66
394,Novotitarovskaya,26,RU,1630018671,84,45.2356,38.9792,73.06,4.68
395,Esfarāyen,0,IR,1630018671,35,37.0765,57.5101,67.66,3.89
396,Ilulissat,100,GL,1630018672,94,69.2167,-51.1,37.36,2.93
397,Lagos,100,NG,1630018372,93,6.5833,3.75,79.12,2.8
398,Yaviza,82,PA,1630018672,97,8.1537,-77.6931,76.53,1.95
399,Diamantino,46,BR,1630018672,31,-14.4086,-56.4461,82.56,5.37
400,Grants,40,US,1630018673,26,35.1473,-107.8514,80.83,17.27
401,Vestmannaeyjar,100,IS,1630018673,96,63.4427,-20.2734,55.36,20.96
402,Ust'-Koksa,0,RU,1630018673,89,50.2696,85.6108,45.48,2.93
403,Saravena,97,CO,1630018674,93,6.9538,-71.8752,75.22,2.06
404,Monte Carmelo,64,BR,1630018674,31,-18.7247,-47.4986,74.7,6.26
405,Vidim,44,RU,1630018674,86,56.4088,103.1106,51.8,2.08
406,Aripuanã,96,BR,1630018675,39,-9.1667,-60.6333,86.2,3.11
407,Black Forest,40,US,1630018675,45,39.0131,-104.7008,82.29,4.0
408,Barra,32,BR,1630018676,44,-11.0894,-43.1417,79.86,5.53
409,Suez,0,EG,1630018676,82,29.9737,32.5263,77.27,10.94
410,Rio Grande,0,BR,1630018480,74,-32.035,-52.0986,51.94,4.81
411,Itapuranga,45,BR,1630018676,22,-15.5622,-49.9486,84.24,0.22
412,Santa Cruz de la Sierra,90,BO,1630018646,67,-17.8,-63.1667,62.65,6.91
413,Māngrol,100,IN,1630018677,78,21.1167,70.1167,81.37,15.01
414,Taree,75,AU,1630018677,76,-31.9,152.4667,56.07,5.75
415,Tecolutla,8,MX,1630018678,69,20.4833,-97.0167,81.95,6.6
416,Gijang,79,KR,1630018678,75,35.2442,129.2139,73.13,5.77
417,Hambantota,40,LK,1630018678,94,6.1241,81.1185,77.34,5.75
418,Deputatsky,100,RU,1630018679,77,69.3,139.9,50.49,2.1
419,Anderson,63,US,1630018663,73,34.5334,-82.6499,87.82,1.99
420,Pacific Grove,12,US,1630018679,79,36.6177,-121.9166,92.16,7.0
421,Dawei,100,MM,1630018680,94,14.0833,98.2,75.29,1.1
422,Seabra,8,BR,1630018680,59,-12.4186,-41.7703,73.13,9.26
423,Pitimbu,10,BR,1630018680,83,-7.4706,-34.8086,75.79,13.18
424,Lebu,95,CL,1630018681,80,-37.6167,-73.65,47.43,3.15
425,Shuyskoye,57,RU,1630018681,87,59.3736,41.0305,48.29,6.67
426,Zhangjiakou,0,CN,1630018682,73,40.81,114.8794,57.16,3.83
427,Bambanglipuro,41,ID,1630018618,81,-7.95,110.2833,73.08,3.89
428,Karratha,66,AU,1630018682,34,-20.7377,116.8463,71.35,11.25
429,Crixás,52,BR,1630018390,22,-14.5489,-49.9692,85.73,1.54
430,Mīnāb,2,IR,1630018683,31,27.1467,57.0801,89.1,5.21
431,Shahdol,100,IN,1630018683,91,23.2833,81.35,73.98,3.69
432,Marfino,75,RU,1630018683,94,55.7028,37.3822,61.05,6.71
433,Mackay,0,AU,1630018684,82,-21.15,149.2,72.05,5.75
434,Shaoguan,15,CN,1630018684,91,24.8,113.5833,76.64,0.76
435,Krasnoarmeysk,0,RU,1630018684,38,51.0239,45.6969,63.28,9.13
436,Porbandar,100,IN,1630018685,78,21.6422,69.6093,80.98,15.32
437,Chitose,75,JP,1630018685,52,42.8194,141.6522,75.07,5.75
438,Madimba,0,TZ,1630018685,88,-10.4,40.3333,69.42,3.8
439,Sirte,0,LY,1630018686,57,31.2089,16.5887,80.6,10.4
440,Punta Alta,49,AR,1630018686,28,-38.8759,-62.0736,51.04,22.59
441,Maumere,12,ID,1630018686,76,-8.6199,122.2111,78.91,4.65
442,Kasongo-Lunda,53,CD,1630018687,84,-6.4667,16.8167,72.66,2.44
443,Mashhad,0,IR,1630018672,43,36.297,59.6062,71.74,4.61
444,Chuzhou,94,CN,1630018687,88,32.3219,118.2978,70.07,5.79
445,Nyurba,100,RU,1630018688,81,63.2842,118.3319,45.57,9.22
446,Pacifica,20,US,1630018426,56,37.6138,-122.4869,96.26,17.27
447,Pereyaslovskaya,21,RU,1630018688,77,45.8412,39.0238,70.65,5.73
448,Geraldton,90,AU,1630018688,93,-28.7667,114.6,52.21,5.75
449,Launceston,90,AU,1630018689,84,-41.45,147.1667,48.15,5.01
450,Torbay,40,CA,1630018689,87,47.6666,-52.7314,57.27,6.91
451,Coos Bay,37,US,1630018689,71,43.3665,-124.2179,89.85,8.52
452,Tenri,100,JP,1630018690,69,34.5833,135.8333,80.01,3.71
453,Lompoc,0,US,1630018690,68,34.6391,-120.4579,90.21,18.99
454,Impfondo,77,CG,1630018690,83,1.6381,18.0667,73.35,3.42
455,Barraute,35,CA,1630018691,62,48.4335,-77.6328,70.07,8.77
456,Haimen,3,CN,1630018691,84,23.1935,116.6142,76.89,3.22
457,Novaya Lyalya,6,RU,1630018692,93,59.055,60.599,45.61,4.9
458,Ati,90,TD,1630018692,59,13.2154,18.3353,83.73,4.88
459,Mitchell,90,US,1630018639,31,43.7094,-98.0298,91.08,3.31
460,Aykhal,100,RU,1630018692,95,66.0,111.5,36.16,15.17
461,Saurimo,78,AO,1630018457,39,-9.6608,20.3916,73.89,4.45
462,Lanas,84,PH,1630018693,77,12.0495,121.9185,82.06,15.82
463,Waipawa,100,NZ,1630018693,84,-41.4122,175.5153,52.45,3.98
464,Beni,0,CD,1630018694,80,0.5,29.4667,64.38,2.21
465,Harper,100,LR,1630018694,85,4.375,-7.7169,77.59,5.73
466,Sandomierz,57,PL,1630018694,93,50.6827,21.749,55.72,5.64
467,Saint-Pierre,90,RE,1630018695,77,-21.3393,55.4781,67.64,9.22
468,Arawa,99,PG,1630018695,81,-6.2132,155.5367,82.44,5.26
469,Artesia,0,US,1630018695,43,33.8658,-118.0831,108.39,8.99
470,Derzhavīnsk,1,KZ,1630018696,37,51.1,66.3167,67.23,7.38
471,Aksu,3,CN,1630018696,41,41.1231,80.2644,71.04,4.21
472,Atbasar,5,KZ,1630018696,49,51.8,68.3333,65.23,6.96
473,Tessalit,71,ML,1630018697,30,20.1986,1.0114,89.56,7.74
474,Grand Gaube,11,MU,1630018507,84,-20.0064,57.6608,66.6,5.01
475,Guánica,62,PR,1630018697,76,17.9716,-66.908,85.5,1.99
476,Tingo María,30,PE,1630018697,80,-9.2895,-76.0088,73.92,2.04
477,Meiktila,100,MM,1630018698,90,20.8667,95.8667,75.18,7.76
478,Beira,20,MZ,1630018698,94,-19.8436,34.8389,68.09,5.75
479,San Andrés,90,CO,1630018699,83,12.5847,-81.7006,82.42,6.91
480,Ahualulco del Sonido Trece,44,MX,1630018699,49,22.4,-101.1667,71.29,21.3
481,Bintulu,20,MY,1630018699,100,3.1667,113.0333,73.81,2.3
482,Sukabumi,60,ID,1630018700,98,-6.9181,106.9267,65.57,2.66
483,Eenhana,64,NA,1630018700,28,-17.4667,16.3333,76.75,2.84
484,Methóni,0,GR,1630018700,75,36.8197,21.7049,80.22,6.04
485,Amudat,11,UG,1630018701,49,1.95,34.95,71.15,1.86
486,Paphos,0,CY,1630018471,38,34.7667,32.4167,80.51,3.44
487,Ngaoundéré,98,CM,1630018701,94,7.3167,13.5833,64.89,0.51
488,Kodinsk,100,RU,1630018701,83,58.6881,99.1844,60.01,2.57
489,Puerto Escondido,100,MX,1630018702,81,15.85,-97.0667,79.3,21.18
490,Zhuhai,20,CN,1630018702,84,22.2769,113.5678,83.98,6.91
491,Cabo San Lucas,9,MX,1630018702,70,22.8909,-109.9124,99.52,9.28
492,San Matías,70,BO,1630018703,31,-16.3667,-58.4,80.55,5.12
493,Los Alamos,40,US,1630018703,24,35.8881,-106.307,87.78,1.01
494,Lucapa,64,AO,1630018703,44,-8.4192,20.7447,76.53,3.11
495,Okakarara,6,NA,1630018704,24,-20.5833,17.4333,61.09,6.67
496,Sioux Lookout,90,CA,1630018704,63,50.1001,-91.917,59.38,8.05
497,Quatre Cocos,11,MU,1630018704,80,-20.2078,57.7625,66.31,13.47
498,Grafton,6,US,1630018705,70,42.207,-71.6856,87.21,4.61
499,Ruidoso,1,US,1630018705,36,33.3317,-105.673,84.06,13.8
500,Olafsvik,100,IS,1630018705,95,64.8945,-23.7142,55.02,20.07
501,Storsteinnes,48,NO,1630018706,72,69.2408,19.2344,50.0,2.82
502,Doha,0,QA,1630018706,66,25.2867,51.5333,94.98,4.61
503,Kaffrine,77,SN,1630018707,74,14.1059,-15.5508,84.09,6.06
504,Luz,23,BR,1630018707,31,-19.8014,-45.6856,75.04,5.26
505,Wanning,46,CN,1630018707,84,18.8003,110.3967,80.11,1.83
506,Castlegar,82,CA,1630018708,29,49.2998,-117.6689,79.99,5.79
507,Skibbereen,0,IE,1630018708,87,51.55,-9.2667,66.0,3.09
508,Tocopilla,26,CL,1630018708,79,-22.092,-70.1979,58.64,3.87
509,Taunggyi,100,MM,1630018709,97,20.7833,97.0333,61.5,2.73
510,Carauari,77,BR,1630018709,41,-4.8828,-66.8958,88.54,2.75
511,Paamiut,61,GL,1630018709,86,61.994,-49.6678,43.41,13.76
512,Bloomington,75,US,1630018593,83,44.8408,-93.2983,72.37,5.01
513,Davila,28,PH,1630018710,76,18.4726,120.5763,76.98,5.17
514,Kiryat Gat,1,IL,1630018710,83,31.61,34.7642,81.28,5.08
515,Batemans Bay,100,AU,1630018711,95,-35.7167,150.1833,51.98,5.86
516,Assiut,0,EG,1630018711,36,27.181,31.1837,82.58,16.2
517,Philadelphia,75,US,1630018598,67,39.9523,-75.1638,91.71,3.0
518,Suntar,100,RU,1630018712,80,62.1444,117.6319,49.15,8.34
519,Mount Isa,0,AU,1630018712,20,-20.7333,139.5,60.57,8.05
520,Tabou,100,CI,1630018712,88,4.423,-7.3528,76.69,4.38
521,Laguna,1,US,1630018713,22,38.421,-121.4238,98.64,1.99
522,Palmer,11,US,1630018713,66,42.1584,-72.3287,86.22,2.64
523,Boden,24,SE,1630018713,86,65.8252,21.6886,42.8,2.53
524,Canhaway,100,PH,1630018714,87,9.7501,124.4722,79.34,6.67
525,La Crosse,100,US,1630018570,92,43.8014,-91.2396,75.33,10.42
526,Namatanai,98,PG,1630018714,71,-3.6667,152.4333,83.48,7.38
527,Sinnamary,57,GF,1630018715,83,5.3833,-52.95,79.0,4.9
528,Caravelas,1,BR,1630018715,82,-17.7125,-39.2481,73.09,8.08
529,Kokopo,100,PG,1630018715,68,-4.352,152.2633,83.21,7.09
530,Havelock,18,US,1630018716,78,34.8791,-76.9013,85.98,1.01
531,Petropavlovsk-Kamchatskiy,0,RU,1630018716,67,53.0452,158.6483,59.59,4.47
532,Tailai,55,CN,1630018716,91,46.3833,123.4,61.32,6.78
533,São Bartolomeu de Messines,1,PT,1630018717,91,37.2602,-8.2867,68.02,4.5
534,Esim,9,GH,1630018717,88,4.8699,-2.2405,76.5,5.97
535,Winnemucca,5,US,1630018717,13,40.973,-117.7357,82.11,10.6
536,Luganville,78,VU,1630018718,67,-15.5333,167.1667,80.8,12.1
537,Saint-Augustin,100,CA,1630018718,81,51.226,-58.6502,59.65,8.28
538,Walvis Bay,0,NA,1630018718,87,-22.9575,14.5053,54.09,4.61
539,Bayangol,96,RU,1630018719,87,50.6977,103.4656,39.67,2.21
540,Līsakovsk,2,KZ,1630018719,42,52.5369,62.4936,67.32,6.73
541,San Rafael del Sur,43,NI,1630018719,81,11.8485,-86.4384,85.17,4.88
542,Zhovti Vody,99,UA,1630018720,95,48.3473,33.5003,64.06,6.06
543,Gizo Government Station,48,SB,1630018720,72,-8.103,156.8419,83.21,11.05
544,Rognan,97,NO,1630018721,91,67.0953,15.3878,48.88,5.86
545,Mel'nikovo,11,RU,1630018721,93,56.5558,84.085,64.92,4.92
546,Pleasanton,0,US,1630018556,35,37.6624,-121.8747,97.56,8.01
547,Romitan,0,UZ,1630018721,35,39.9343,64.3814,75.15,9.22
548,Calama,35,CL,1630018447,12,-22.4667,-68.9333,61.29,17.27
549,Marawi,100,PH,1630018722,89,7.9986,124.2928,66.65,2.28
550,Koratla,83,IN,1630018722,89,18.8167,78.7167,74.28,4.5
551,Arrecife,20,ES,1630018722,78,28.963,-13.5477,73.47,11.5
552,Mizdah,0,LY,1630018723,23,31.4451,12.9801,81.07,4.97
553,Nuuk,100,GL,1630018723,88,64.1835,-51.7216,43.03,8.97
554,Coyhaique,75,CL,1630018724,61,-45.5752,-72.0662,42.75,0.0
555,Casablanca,3,MA,1630018565,84,33.5928,-7.6192,73.42,6.13
556,Taoudenni,97,ML,1630018724,39,22.6783,-3.9836,88.48,16.51
557,Okha,100,RU,1630018724,94,53.5739,142.9478,61.12,2.66
558,Faya,3,SA,1630018725,31,18.3851,42.4509,69.91,7.07
559,Durban,1,ZA,1630018725,52,-29.8579,31.0292,77.92,11.05
560,Limbaži,100,LV,1630018576,98,57.5129,24.7194,58.01,9.31
561,Ryl'sk,100,RU,1630018726,92,51.5655,34.6822,60.85,3.98
562,Bereda,98,ES,1630018726,100,43.2686,-7.5406,64.15,2.82
