,City,Cloudiness,Country,Date,Humidity,Lat,Lng,Max Temp,Wind Speed
0,Cape Town,42,ZA,1629846220,88,-33.9258,18.4232,57.88,1.99
1,Ushuaia,94,AR,1629846033,85,-54.8,-68.3,31.73,4.05
2,Kaitangata,22,NZ,1629846351,65,-46.2817,169.8464,56.55,6.31
3,Tura,100,IN,1629846636,98,25.5198,90.2201,73.81,6.13
4,Half Moon Bay,20,US,1629846443,70,37.4636,-122.4286,85.91,1.99
5,Torbay,90,CA,1629846023,92,47.6666,-52.7314,69.76,16.11
6,Qaanaaq,100,GL,1629846278,57,77.484,-69.3632,45.19,6.78
7,Jamestown,2,US,1629846026,83,42.097,-79.2353,81.84,2.62
8,Saint-Philippe,40,RE,1629846345,79,-21.3585,55.7679,65.75,10.31
9,College,90,US,1629846362,92,64.8569,-147.8028,60.75,4.61
10,Rikitea,37,PF,1629846283,67,-23.1203,-134.9692,71.04,9.55
11,Kudymkar,100,RU,1629846444,99,59.0173,54.656,56.41,3.89
12,Chui,100,UY,1629846314,84,-33.6971,-53.4616,52.16,8.05
13,Albany,0,US,1629846444,69,42.6001,-73.9662,82.35,1.99
14,Hermanus,57,ZA,1629846276,83,-34.4187,19.2345,55.9,7.72
15,Black River,17,JM,1629846445,72,18.0264,-77.8487,87.98,1.9
16,Saint Paul Harbor,95,US,1629846297,88,57.79,-152.4072,52.83,7.07
17,Ancud,100,CL,1629846337,86,-41.8697,-73.8203,42.42,16.53
18,The Pas,100,CA,1629846446,95,53.8251,-101.2541,50.25,6.76
19,Tadine,31,NC,1629846308,73,-21.55,167.8833,72.01,17.43
20,Bairiki Village,20,KI,1629846446,62,1.3292,172.9752,87.8,11.5
21,Kapaa,90,US,1629846312,68,22.0752,-159.319,85.98,4.0
22,Cap Malheureux,96,MU,1629846447,73,-19.9842,57.6142,67.46,3.0
23,Punta Arenas,75,CL,1629846287,75,-53.15,-70.9167,33.91,2.3
24,Morón,91,AR,1629846349,67,-34.6534,-58.6198,56.01,1.01
25,Tasiilaq,100,GL,1629846192,96,65.6145,-37.6368,46.56,12.03
26,Mahébourg,90,MU,1629846639,69,-20.4081,57.7,67.24,16.71
27,Port Blair,100,IN,1629846448,81,11.6667,92.75,81.0,14.23
28,Castro,4,BR,1629846083,51,-24.7911,-50.0119,66.0,3.96
29,Pevek,100,RU,1629846347,62,69.7008,170.3133,40.64,21.39
30,Manado,40,ID,1629846449,100,1.487,124.8455,74.17,1.14
31,São Filipe,58,CV,1629846301,80,14.8961,-24.4956,79.65,7.54
32,Busselton,3,AU,1629846286,61,-33.65,115.3333,48.09,10.58
33,Tazovsky,53,RU,1629846449,73,67.4667,78.7,44.33,24.92
34,Atuona,22,PF,1629846303,73,-9.8,-139.0333,77.68,15.1
35,Provideniya,40,RU,1629846289,61,64.3833,-173.3,46.51,8.95
36,Puerto Ayora,99,EC,1629846277,90,-0.7393,-90.3518,70.56,11.01
37,Qui Nhon,99,VN,1629846450,82,13.7667,109.2333,77.5,4.41
38,Hobart,75,AU,1629846020,68,-42.8794,147.3294,47.26,1.01
39,Saint Anthony,1,US,1629846451,60,45.0205,-93.218,85.95,1.99
40,Columbus,20,US,1629846325,60,39.9612,-82.9988,91.22,9.22
41,Kumbo,100,CM,1629846451,95,6.2,10.6667,60.06,2.21
42,Tuktoyaktuk,100,CA,1629846197,84,69.4541,-133.0374,40.78,17.22
43,Sapa,100,PH,1629846452,79,5.1544,120.3241,80.28,1.83
44,Tegul'det,5,RU,1629846452,94,57.3064,88.1667,52.41,2.3
45,Kruisfontein,12,ZA,1629846312,81,-34.0033,24.7314,51.49,5.97
46,Abnūb,0,EG,1629846643,27,27.2696,31.1511,84.56,3.65
47,Zhuhai,20,CN,1629846453,89,22.2769,113.5678,85.05,5.75
48,George Town,20,MY,1629846090,93,5.4112,100.3354,74.89,0.0
49,Tanabe,75,JP,1629846453,85,33.7333,135.3667,82.92,1.99
50,Udachny,100,RU,1629846225,87,66.4167,112.4,54.23,19.35
51,Bredasdorp,32,ZA,1629846282,90,-34.5322,20.0403,49.28,5.46
52,Husavik,38,IS,1629846644,85,66.0449,-17.3389,63.66,5.12
53,Svirsk,89,RU,1629846454,81,53.0858,103.3325,51.76,5.7
54,Snyder,1,US,1629846454,32,32.7179,-100.9176,97.14,12.66
55,Mataura,80,NZ,1629846276,62,-46.1927,168.8643,49.48,9.98
56,Port Elizabeth,5,ZA,1629846325,83,-33.918,25.5701,55.74,7.38
57,Ust'-Tarka,3,RU,1629846455,82,55.5672,75.705,66.07,4.27
58,Khasan,99,RU,1629846455,89,42.4308,130.6434,69.62,5.59
59,Solwezi,73,ZM,1629846456,43,-12.1688,26.3894,67.87,4.56
60,East London,5,ZA,1629846277,73,-33.0153,27.9116,59.18,7.18
61,Lamar,1,US,1629846456,49,33.6668,-95.5836,94.66,11.5
62,Upernavik,99,GL,1629846457,87,72.7868,-56.1549,41.95,11.1
63,Saint George,1,US,1629846147,11,37.1041,-113.5841,102.67,1.01
64,Uyemskiy,75,RU,1629846457,81,64.4743,40.8524,46.45,4.47
65,Zamānia,100,IN,1629846457,89,25.4333,83.5667,80.31,5.93
66,Nushki,0,PK,1629846458,13,29.5542,66.0215,75.54,6.4
67,Seoul,94,KR,1629846271,94,37.5683,126.9778,76.44,3.49
68,Umm Hājar,47,TD,1629846458,76,13.2954,19.6966,77.74,9.15
69,Kayerkan,100,RU,1629846459,89,69.3497,87.7602,44.92,24.32
70,Wentzville,0,US,1629846459,50,38.8114,-90.8529,97.88,4.0
71,Laguna,1,US,1629846297,25,38.421,-121.4238,95.22,4.0
72,Bluff,100,NZ,1629846281,91,-46.6,168.3333,49.8,12.66
73,Khatanga,100,RU,1629846295,91,71.9667,102.5,49.55,5.08
74,Santa Maria,44,BR,1629846460,91,-29.6842,-53.8069,60.21,8.03
75,Tucuruí,63,BR,1629846292,53,-3.7661,-49.6725,82.67,5.06
76,Tezu,100,IN,1629846460,99,27.9167,96.1667,75.22,1.97
77,Longyearbyen,75,SJ,1629846315,87,78.2186,15.6401,42.64,3.44
78,Hilo,52,US,1629846196,90,19.7297,-155.09,84.27,1.99
79,Fort Nelson,20,CA,1629846461,33,58.8053,-122.7002,74.55,3.87
80,Hasaki,100,JP,1629846461,86,35.7333,140.8333,81.0,13.53
81,Lebu,80,CL,1629846462,68,-37.6167,-73.65,45.21,2.86
82,Nanortalik,100,GL,1629846462,87,60.1432,-45.2371,45.88,2.3
83,Vaini,20,TO,1629846294,68,-21.2,-175.2,71.76,16.11
84,Arlit,42,NE,1629846462,13,18.7369,7.3853,97.93,10.69
85,Menomonie,91,US,1629846463,68,44.8755,-91.9193,79.2,4.25
86,Thompson,100,CA,1629846877,44,55.7435,-97.8558,59.88,5.64
87,Butaritari,96,KI,1629846280,68,3.0707,172.7902,84.42,17.56
88,Tenkodogo,49,BF,1629846464,65,11.78,-0.3697,82.13,7.09
89,Palmerston North,14,NZ,1629846258,61,-40.35,175.6167,61.05,11.12
90,Mokhsogollokh,100,RU,1629846464,91,61.4681,128.9203,49.78,7.09
91,Vondrozo,97,MG,1629846464,92,-22.8167,47.2833,60.39,1.72
92,Trelew,48,AR,1629846366,42,-43.249,-65.3051,47.41,9.42
93,Bereket,0,TM,1629846465,17,39.2446,55.5154,83.55,8.16
94,Yellowknife,80,CA,1629846285,50,62.456,-114.3525,59.86,12.1
95,Padang,100,ID,1629846465,85,-0.9492,100.3543,76.21,3.4
96,Bengkulu,16,ID,1629846337,91,-3.8004,102.2655,72.95,3.44
97,Mercedes,99,AR,1629846466,58,-34.6515,-59.4307,55.85,7.23
98,Norman Wells,99,CA,1629846466,41,65.282,-126.8329,70.27,6.31
99,Yar-Sale,24,RU,1629846467,80,66.8333,70.8333,45.18,5.06
100,Great Bend,1,US,1629846467,33,38.3645,-98.7648,102.25,10.0
101,Amalfi,99,CO,1629846467,99,6.9102,-75.0776,63.43,1.74
102,Stornoway,40,GB,1629846266,94,58.2093,-6.3865,56.93,0.0
103,Sola,15,VU,1629846468,74,-13.8833,167.55,77.5,16.51
104,Nizhnevartovsk,96,RU,1629846468,100,60.9344,76.5531,62.62,0.0
105,Trairi,53,BR,1629846427,81,-3.2778,-39.2689,78.87,12.71
106,Yangi Marg`ilon,3,UZ,1629846469,40,40.4272,71.7189,74.62,2.3
107,Port Hardy,58,CA,1629846469,71,50.6996,-127.4199,61.11,8.01
108,Chapais,94,CA,1629846166,65,49.7834,-74.8492,70.77,7.47
109,Lavrentiya,68,RU,1629846346,65,65.5833,-171.0,42.76,11.52
110,Tsimmerbude,68,RU,1629846470,72,54.675,20.1347,55.45,3.02
111,Toamasina,56,MG,1629846470,80,-18.1667,49.3833,66.81,1.99
112,Nishihara,20,JP,1629846471,87,26.1842,127.7558,83.48,8.05
113,Diveyevo,84,RU,1629846471,71,55.0433,43.2418,54.52,4.79
114,Bilma,5,NE,1629846297,22,18.6853,12.9164,94.41,5.35
115,Poconé,0,BR,1629846472,21,-16.2567,-56.6228,88.11,4.41
116,Barrow,90,US,1629846881,80,71.2906,-156.7887,33.82,5.75
117,Strenči,100,LV,1629846472,85,57.6257,25.6854,51.42,2.68
118,Riyadh,45,SA,1629846520,29,24.6877,46.7219,93.34,11.5
119,Jupiter,89,US,1629846473,76,26.9342,-80.0942,88.07,5.99
120,Zyryanka,89,RU,1629846473,75,65.75,150.85,59.52,8.3
121,Sovetskiy,100,RU,1629846473,88,61.3614,63.5842,59.59,2.33
122,Ilulissat,100,GL,1629846529,71,69.2167,-51.1,46.42,9.22
123,Ponta do Sol,3,PT,1629846655,71,32.6667,-17.1,75.83,4.92
124,Puerto Colombia,100,CO,1629846474,78,10.9878,-74.9547,73.49,14.83
125,Coyhaique,90,CL,1629846355,87,-45.5752,-72.0662,37.35,8.05
126,Hithadhoo,34,MV,1629846310,70,-0.6,73.0833,82.63,11.52
127,Cidreira,93,BR,1629846656,98,-30.1811,-50.2056,62.53,6.78
128,Hofn,91,IS,1629846656,95,64.2539,-15.2082,55.94,5.32
129,Meadow Lake,59,US,1629846475,18,34.8014,-106.5436,94.6,5.21
130,Praia da Vitória,17,PT,1629846475,79,38.7333,-27.0667,70.75,13.89
131,Roald,90,NO,1629846305,100,62.5833,6.1333,59.9,11.5
132,Bamnet Narong,97,TH,1629846476,92,15.4992,101.6897,74.8,5.26
133,Normandin,49,CA,1629846476,60,48.8333,-72.5321,74.61,3.53
134,Alofi,75,NU,1629846658,73,-19.0595,-169.9187,75.09,12.66
135,Lima,90,PE,1629846498,88,-12.0432,-77.0282,57.45,16.11
136,Airai,64,TL,1629846309,67,-8.9266,125.4092,63.14,3.58
137,Te Anau,100,NZ,1629846348,86,-45.4167,167.7167,51.91,8.14
138,Arraial do Cabo,0,BR,1629846304,86,-22.9661,-42.0278,71.15,28.12
139,Verkhnyaya Inta,92,RU,1629846299,88,65.9811,60.3094,44.98,5.44
140,Bethel,1,US,1629846301,78,41.3712,-73.414,85.59,3.44
141,Tuatapere,100,NZ,1629846323,91,-46.1333,167.6833,49.82,5.19
142,Esperance,8,AU,1629846293,78,-33.8667,121.9,47.25,16.37
143,Ayan,98,RU,1629846478,97,56.45,138.1667,58.37,10.87
144,San Quintín,2,MX,1629846478,64,30.4833,-115.95,76.3,14.85
145,Shenjiamen,100,CN,1629846478,93,29.9576,122.298,80.02,10.11
146,Dingle,76,PH,1629846886,83,10.9995,122.6711,78.3,2.75
147,Olinda,40,BR,1629846848,65,-8.0089,-34.8553,76.73,10.36
148,Nan,100,TH,1629846479,99,18.8333,100.6667,71.91,0.92
149,Zhangaözen,52,KZ,1629846479,56,43.3,52.8,77.68,7.99
150,La Macarena,88,CO,1629846480,95,2.1837,-73.7849,75.52,2.95
151,Clyde River,73,CA,1629846343,89,70.4692,-68.5914,37.09,2.64
152,Bonavista,95,CA,1629846480,91,48.6499,-53.1147,69.12,20.74
153,Umluj,32,SA,1629846887,47,25.0213,37.2685,88.03,10.94
154,Vila Franca do Campo,100,PT,1629846887,88,37.7167,-25.4333,72.01,10.56
155,Severo-Kuril'sk,81,RU,1629846291,91,50.6789,156.125,55.49,15.77
156,Metro,78,ID,1629846481,93,-5.1131,105.3067,73.09,4.88
157,Kokoda,99,PG,1629846481,93,-8.8785,147.7407,75.16,3.33
158,Karratha,0,AU,1629846482,32,-20.7377,116.8463,69.94,11.83
159,Uitenhage,5,ZA,1629846482,83,-33.7576,25.3971,53.26,6.35
160,Cherskiy,100,RU,1629846358,59,68.75,161.3,53.11,10.45
161,Brewster,1,US,1629846483,81,41.3973,-73.6171,85.75,3.44
162,Arti,99,RU,1629846483,75,56.4234,58.5328,62.2,3.91
163,Ribeira Grande,6,PT,1629846320,67,38.5167,-28.7,71.49,16.28
164,Okhotsk,100,RU,1629846484,92,59.3833,143.3,56.21,7.65
165,Xuchang,22,CN,1629846484,64,34.0167,113.8167,68.32,7.18
166,Mikkeli,90,FI,1629846484,81,61.6886,27.2723,48.31,4.61
167,Obala,98,CM,1629846485,96,4.1667,11.5333,69.96,4.03
168,Banda Aceh,100,ID,1629846485,77,5.5577,95.3222,78.8,7.78
169,Port Hawkesbury,75,CA,1629846485,86,45.6169,-61.3485,76.12,3.0
170,Aasiaat,63,GL,1629846486,91,68.7098,-52.8699,39.34,6.15
171,Zolotonosha,77,UA,1629846486,48,49.6689,32.0377,65.16,3.22
172,Antofagasta,58,CL,1629846486,75,-23.65,-70.4,56.48,4.0
173,Calabozo,98,VE,1629846487,94,8.9242,-67.4293,76.15,3.49
174,Bryan,1,US,1629846487,46,30.6744,-96.37,97.34,9.22
175,Hinatuan,100,PH,1629846488,91,8.3722,126.3342,74.77,3.13
176,Yeppoon,24,AU,1629846488,38,-23.1333,150.7333,58.78,11.99
177,Vardø,100,NO,1629846317,84,70.3705,31.1107,47.75,15.17
178,Maniwaki,4,CA,1629846488,65,46.3834,-75.966,77.34,3.8
179,Ciudad Río Bravo,20,MX,1629846489,40,25.9833,-98.1,96.3,11.5
180,Mubi,71,NG,1629846489,74,10.2676,13.2644,75.4,4.25
181,Saint-Joseph,40,RE,1629846490,75,-21.3667,55.6167,64.76,10.76
182,Popondetta,99,PG,1629846490,99,-8.7537,148.2534,72.37,1.63
183,Geraldton,3,AU,1629846490,47,-28.7667,114.6,55.81,18.41
184,Solnechnyy,19,RU,1629846491,79,50.7214,136.6319,69.82,2.95
185,Pangnirtung,100,CA,1629846324,99,66.1451,-65.7125,39.94,4.45
186,Port Lincoln,47,AU,1629846022,68,-34.7333,135.8667,53.49,9.28
187,Saskylakh,99,RU,1629846666,81,71.9167,114.0833,49.33,7.47
188,Kavaratti,21,IN,1629846666,79,10.5669,72.642,80.33,11.14
189,Guarujá,0,BR,1629846228,86,-23.9931,-46.2564,89.17,1.36
190,Samarai,94,PG,1629846492,83,-10.6167,150.6667,79.23,10.04
191,Vyshhorod,100,UA,1629846492,98,50.5848,30.4898,63.34,7.92
192,Avarua,75,CK,1629846893,88,-21.2078,-159.775,75.25,6.91
193,Serra,0,BR,1629846493,68,-20.1286,-40.3078,72.86,12.66
194,New Norfolk,54,AU,1629846894,70,-42.7826,147.0587,46.92,1.99
195,Souillac,68,MU,1629846668,71,-20.5167,57.5167,67.35,14.65
196,Bay Saint Louis,40,US,1629846493,65,30.3088,-89.33,93.27,6.91
197,Kiryat Gat,0,IL,1629846494,67,31.61,34.7642,81.39,1.48
198,Iwanai,100,JP,1629846494,97,42.9744,140.5089,65.8,7.63
199,Mathbaria,100,BD,1629846495,88,22.2876,89.9593,80.62,6.11
200,Mehamn,97,NO,1629846495,87,71.0357,27.8492,46.6,10.16
201,Spring Valley,1,US,1629846495,9,36.108,-115.245,102.63,1.01
202,Margate,68,GB,1629846298,78,51.3813,1.3862,60.87,3.0
203,Markova,85,UA,1629846496,92,48.6758,24.4138,54.12,3.85
204,Huarmey,50,PE,1629846895,83,-10.0681,-78.1522,63.68,14.41
205,Mumford,9,GH,1629846670,91,5.2618,-0.759,75.83,7.16
206,Omagh,24,GB,1629846496,95,54.6,-7.3,58.28,1.39
207,Emerald,25,AU,1629846497,32,-23.5333,148.1667,56.7,14.58
208,Leningradskiy,29,RU,1629846896,62,69.3833,178.4167,41.54,8.81
209,Bereda,58,ES,1629846497,97,43.2686,-7.5406,64.15,7.45
210,Port Alfred,5,ZA,1629846897,86,-33.5906,26.891,57.7,10.94
211,Micheweni,1,TZ,1629846498,77,-4.9667,39.8333,73.63,10.51
212,Ponta Delgada,40,PT,1629846458,78,37.7333,-25.6667,72.32,11.5
213,Bantry,1,IE,1629846499,88,51.6833,-9.45,56.68,7.7
214,Carnarvon,90,AU,1629846320,69,-24.8667,113.6333,53.67,4.61
215,Svetlaya,100,RU,1629846499,96,46.5389,138.3297,65.32,4.76
216,Dikson,100,RU,1629846316,93,73.5069,80.5464,39.54,29.48
217,Hirara,64,JP,1629846500,77,24.8,125.2833,82.6,13.56
218,Araouane,8,ML,1629846500,14,18.9048,-3.5265,99.91,2.08
219,Nassau,1,US,1629846500,62,40.7507,-73.5829,89.98,1.01
220,Sobolevo,100,RU,1629846899,73,54.4299,31.8996,51.6,6.26
221,Derzhavīnsk,52,KZ,1629846501,49,51.1,66.3167,71.83,9.86
222,Bubaque,98,GW,1629846673,81,11.2833,-15.8333,80.26,7.56
223,Prince Albert,75,CA,1629846501,88,53.2001,-105.7677,55.35,6.91
224,Zhigansk,0,RU,1629846502,54,66.7697,123.3711,53.33,4.56
225,Arrondissement de Thiers,19,FR,1629846502,96,45.8333,3.5,63.77,2.24
226,Hervey Bay,9,AU,1629846503,47,-25.2986,152.8535,57.2,13.38
227,La Palma,20,US,1629846624,57,33.8464,-118.0467,99.95,5.01
228,Saint-Leu,39,RE,1629846503,65,-21.15,55.2833,65.23,2.75
229,Doctor Arroyo,72,MX,1629846503,41,23.6667,-100.1833,78.04,8.99
230,Muli,52,MV,1629846504,73,2.9167,73.5667,81.99,15.01
231,Atasū,9,KZ,1629846504,50,48.6814,71.6433,65.97,8.99
232,Parabel',1,RU,1629846505,94,58.6978,81.4825,64.02,5.59
233,Kavieng,91,PG,1629846675,69,-2.5744,150.7967,83.34,8.43
234,Mount Gambier,74,AU,1629846505,84,-37.8333,140.7667,47.86,8.81
235,Merauke,100,ID,1629846506,88,-8.4667,140.3333,76.15,11.01
236,Bandarbeyla,71,SO,1629846506,82,9.4942,50.8122,76.55,26.78
237,Guanare,97,VE,1629846506,95,9.0418,-69.7421,75.58,2.44
238,Acoyapa,100,NI,1629846507,87,11.9703,-85.1711,78.62,9.04
239,Ciudad del Carmen,40,MX,1629846476,89,18.6333,-91.8333,78.84,5.75
240,Douentza,62,ML,1629846507,36,14.9951,-2.9517,92.34,5.79
241,Saint-François,0,FR,1629846903,87,46.4154,3.9054,57.47,3.44
242,Tres Picos,98,MX,1629846508,84,15.8667,-93.5333,81.82,2.53
243,Saint-Pierre,0,RE,1629846241,71,-21.3393,55.4781,65.84,5.75
244,Syumsi,99,RU,1629846508,98,57.1111,51.6149,58.35,6.38
245,Paredon,100,MX,1629846509,78,16.0333,-93.8667,84.06,4.9
246,Oranjemund,0,NA,1629846332,89,-28.55,16.4333,53.83,12.35
247,Nome,90,US,1629846772,81,64.5011,-165.4064,49.15,11.5
248,Ushumun,22,RU,1629846509,87,52.7833,126.5333,54.34,4.63
249,Buala,100,SB,1629846510,75,-8.145,159.5921,82.2,10.36
250,Mariehamn,90,AX,1629846678,88,60.0973,19.9348,57.06,17.27
251,Cayenne,0,GF,1629846510,82,4.9333,-52.3333,82.09,5.01
252,La Ronge,97,CA,1629846345,64,55.1001,-105.2842,53.33,3.42
253,Samaná,73,DO,1629846511,79,19.2056,-69.3369,80.56,7.9
254,Uyuni,0,BO,1629846511,17,-20.4597,-66.825,44.8,20.07
255,Jiangyou,100,CN,1629846511,79,31.7667,104.7167,73.51,2.89
256,Lata,1,PT,1629846512,84,40.1629,-8.3327,69.04,0.76
257,Praia,75,CV,1629846331,89,14.9215,-23.5087,81.14,6.91
258,Ketchikan,99,US,1629846512,79,55.3422,-131.6461,57.94,4.94
259,Srbac,100,BA,1629846513,66,45.0978,17.525,63.45,3.29
260,Maningrida,25,AU,1629846513,45,-12.0667,134.2667,74.43,14.47
261,Tabuk,20,PH,1629846513,85,17.4189,121.4443,75.96,1.39
262,Lagoa,1,PT,1629846514,68,39.05,-27.9833,70.5,16.4
263,Saint-Marc,63,HT,1629846514,68,19.1082,-72.6938,84.67,6.64
264,Nikolskoye,99,RU,1629846907,83,59.7035,30.7861,51.69,4.09
265,Makkah al Mukarramah,95,SA,1629846515,45,21.4267,39.8261,88.27,3.51
266,Mackenzie,64,CA,1629846515,38,55.2999,-123.1698,67.08,6.44
267,Ileza,100,RU,1629846516,98,61.0533,43.9002,50.63,3.29
268,Pindiga,72,NG,1629846516,84,9.9833,10.9333,74.89,5.37
269,Saint-Félicien,42,CA,1629846516,61,48.6501,-72.4491,75.06,4.0
270,Esim,13,GH,1629846681,91,4.8699,-2.2405,75.65,5.77
271,Port-Gentil,64,GA,1629846517,83,-0.7193,8.7815,77.16,14.99
272,Gunjur,40,GM,1629846517,94,13.2019,-16.7339,78.87,0.0
273,Talnakh,100,RU,1629846517,89,69.4865,88.3972,45.99,19.77
274,Mgandu,0,TZ,1629846518,54,-5.95,34.1333,62.55,9.44
275,Sinnamary,22,GF,1629846909,80,5.3833,-52.95,80.24,11.86
276,Pitimbu,24,BR,1629846519,84,-7.4706,-34.8086,77.59,14.05
277,Saint-Augustin,100,CA,1629846519,98,51.226,-58.6502,59.86,7.18
278,Constitución,3,CL,1629846656,71,-35.3333,-72.4167,47.03,13.73
279,Bilibino,99,RU,1629846910,48,68.0546,166.4372,50.95,5.46
280,Gazojak,0,TM,1629846520,23,41.1875,61.4036,78.33,8.21
281,Umm Kaddadah,20,SD,1629846520,49,13.6017,26.6876,84.18,6.51
282,Eureka,18,US,1629846705,71,40.8021,-124.1637,80.67,7.0
283,Chokurdakh,100,RU,1629846355,79,70.6333,147.9167,48.15,8.14
284,Roboré,0,BO,1629846521,46,-18.3333,-59.75,91.49,4.61
285,San Patricio,13,US,1629846335,46,28.017,-97.5169,95.09,14.79
286,Helmsdale,95,GB,1629846521,91,58.1168,-3.6517,57.43,3.0
287,Springfield,1,US,1629846146,48,37.2153,-93.2982,95.9,8.99
288,Chipinge,0,ZW,1629846522,54,-20.1883,32.6236,61.34,3.24
289,Solotvyn,86,UA,1629846522,90,48.7021,24.4221,54.28,4.59
290,Namatanai,85,PG,1629846912,74,-3.6667,152.4333,80.76,7.47
291,Xichang,100,CN,1629846523,86,27.8964,102.2634,65.53,1.77
292,Eyl,44,SO,1629846912,81,7.9803,49.8164,76.37,21.88
293,Ağdam,15,AZ,1629846523,65,39.991,46.9274,72.18,4.56
294,Kununurra,16,AU,1629846377,18,-15.7667,128.7333,71.89,16.93
295,Mandera,23,KE,1629846913,61,3.9366,41.867,76.24,20.24
296,Hambantota,56,LK,1629846347,84,6.1241,81.1185,78.19,11.07
297,Richards Bay,3,ZA,1629846685,86,-28.783,32.0377,63.25,7.92
298,Rassvet,0,RU,1629846524,65,46.8333,40.75,64.81,2.24
299,Progreso,100,MX,1629846524,80,21.2833,-89.6667,73.51,15.84
300,Avera,90,US,1629846914,57,33.194,-82.5271,89.65,3.38
301,Filoti,0,GR,1629846525,73,37.05,25.5,73.63,1.01
302,Ukiah,1,US,1629846465,29,39.1502,-123.2078,90.45,12.66
303,Pasni,2,PK,1629846526,90,25.2631,63.471,78.67,15.99
304,Batagay,95,RU,1629846526,69,67.6333,134.6333,55.02,8.03
305,Hamilton,20,US,1629846256,55,39.1834,-84.5333,93.83,1.01
306,Andra,100,RU,1629846526,81,62.5147,65.8878,61.11,2.01
307,Kpandu,79,GH,1629846527,93,6.9954,0.2931,74.17,8.59
308,Pokhara,100,NP,1629846527,89,28.2333,83.9833,71.6,1.77
309,Korla,64,CN,1629846528,23,41.7597,86.1469,73.58,7.45
310,San Martín,0,AR,1629846528,21,-33.081,-68.4681,54.68,5.1
311,Torrington,15,US,1629846528,82,41.8007,-73.1212,83.88,3.22
312,Cabo San Lucas,20,MX,1629846529,74,22.8909,-109.9124,92.8,13.8
313,Turukhansk,52,RU,1629846529,79,65.8167,87.9833,50.77,8.84
314,Kavos,0,GR,1629846530,59,38.8268,22.8322,79.97,1.01
315,Olafsvik,100,IS,1629846530,97,64.8945,-23.7142,57.18,18.3
316,Yulara,31,AU,1629846530,40,-25.2406,130.9889,49.84,12.66
317,Porbandar,76,IN,1629846531,78,21.6422,69.6093,81.72,15.14
318,Chernyshevskiy,21,RU,1629846689,85,63.0128,112.4714,49.03,4.9
319,Beian,75,NO,1629846531,94,63.6559,9.5683,55.49,24.16
320,Beira,1,MZ,1629846532,92,-19.8436,34.8389,68.07,6.4
321,Río Gallegos,100,AR,1629846110,62,-51.6226,-69.2181,37.54,5.21
322,Kapoeta,28,SS,1629846532,49,4.7717,33.5903,76.46,4.14
323,Tiksi,97,RU,1629846918,80,71.6872,128.8694,47.07,10.25
324,Sisimiut,82,GL,1629846532,90,66.9395,-53.6735,43.97,27.42
325,Talara,70,PE,1629846533,85,-4.5772,-81.2719,65.48,21.9
326,Minbu,99,MM,1629846533,82,20.1833,94.8833,78.03,6.08
327,Dicabisagan,78,PH,1629846534,84,17.0818,122.4157,79.47,1.79
328,Oga,99,IT,1629846534,88,46.4631,10.347,51.69,1.03
329,Tynda,100,RU,1629846534,95,55.1667,124.7167,50.04,4.97
330,Hashtrūd,10,IR,1629846535,40,37.4779,47.0508,69.89,2.95
331,Beloha,1,MG,1629846535,91,-25.1667,45.05,64.15,3.67
332,Klaksvík,81,FO,1629846335,96,62.2266,-6.589,52.72,14.09
333,Mahabalipuram,75,IN,1629846536,75,12.6264,80.1722,82.45,17.27
334,Yuci,20,CN,1629846536,48,37.6803,112.7319,64.15,11.18
335,Galle,42,LK,1629846536,86,6.0367,80.217,77.16,3.98
336,Mt. Pleasant,1,US,1629846495,85,32.7941,-79.8626,84.34,4.0
337,Isaka,0,TZ,1629846537,34,-3.9,32.9333,67.05,5.3
338,The Valley,20,AI,1629846537,74,18.217,-63.0578,84.34,10.36
339,Rajpur,51,IN,1629846537,89,22.3,74.35,74.73,9.82
340,Faya,86,SA,1629846538,39,18.3851,42.4509,66.72,3.04
341,Buchanan,99,LR,1629846538,89,5.8808,-10.0467,76.46,6.55
342,Poum,28,NC,1629846921,73,-20.2333,164.0167,74.14,16.46
343,Grindavik,90,IS,1629846921,100,63.8424,-22.4338,58.95,21.85
344,Coos Bay,75,US,1629846539,72,43.3665,-124.2179,84.85,16.11
345,Khani,3,GE,1629846539,71,41.9563,42.9566,62.17,5.08
346,Devils Lake,94,US,1629846540,81,48.1128,-98.8651,65.95,10.0
347,Dalbandin,3,PK,1629846540,13,28.8947,64.4101,79.83,10.54
348,Cabedelo,50,BR,1629846058,86,-6.9811,-34.8339,75.24,13.94
349,Plettenberg Bay,7,ZA,1629846540,74,-34.0527,23.3716,56.01,4.16
350,San Andrés,40,CO,1629846922,74,12.5847,-81.7006,84.22,11.5
351,Oudtshoorn,5,ZA,1629846541,76,-33.5907,22.2014,53.1,1.25
352,North Branch,45,US,1629846320,72,45.5113,-92.9802,87.04,9.42
353,Chunoyar,95,RU,1629846542,79,57.4467,97.3217,53.38,2.04
354,Goderich,0,CA,1629846542,68,43.7501,-81.7165,83.91,6.04
355,Kiunga,98,PG,1629846924,98,-6.1219,141.2906,73.44,2.37
356,San Cristobal,67,VE,1629846404,90,7.7669,-72.225,73.58,4.03
357,Luganville,87,VU,1629846543,81,-15.5333,167.1667,75.7,12.55
358,Safi,21,MA,1629846543,88,32.2994,-9.2372,68.77,6.06
359,Fortuna,20,US,1629846350,74,40.5982,-124.1573,80.42,1.01
360,Shuangcheng,99,CN,1629846544,94,45.35,126.2833,65.5,11.63
361,Ahipara,61,NZ,1629846544,67,-35.1667,173.1667,59.13,10.76
362,Caravelas,0,BR,1629846925,77,-17.7125,-39.2481,69.33,6.4
363,Santa Cruz del Norte,90,CU,1629846545,78,23.1539,-81.9236,86.74,19.8
364,Hillsboro,1,US,1629846323,24,45.5229,-122.9898,89.94,0.0
365,Balkány,90,HU,1629846545,77,47.7707,21.8631,58.6,16.91
366,Guerrero Negro,1,MX,1629846926,49,27.9769,-114.0611,83.05,15.97
367,Hong Kong,100,HK,1629846769,83,22.2855,114.1577,85.32,1.01
368,Viedma,22,AR,1629846546,33,-40.8135,-62.9967,45.12,8.9
369,Ostrovnoy,100,RU,1629846697,75,68.0531,39.5131,43.47,4.34
370,Troitsko-Pechorsk,100,RU,1629846546,97,62.7084,56.1964,46.47,3.94
371,Meleuz,100,RU,1629846547,39,52.9667,55.9167,68.56,5.61
372,Tabou,44,CI,1629846698,91,4.423,-7.3528,75.47,7.02
373,Asunción,66,PY,1629846408,60,-25.3007,-57.6359,71.04,6.91
374,Beyla,100,GN,1629846547,95,8.6833,-8.6333,68.43,1.36
375,Kwekwe,22,ZW,1629846548,42,-18.9281,29.8149,63.7,5.55
376,Port Alberni,2,CA,1629846548,34,49.2413,-124.8028,81.88,5.99
377,Slave Lake,30,CA,1629846548,40,55.2834,-114.769,64.69,4.32
378,Huilong,100,CN,1629846549,94,31.8111,121.655,82.04,7.16
379,Faanui,83,PF,1629846928,82,-16.4833,-151.75,78.24,17.67
380,Iquitos,40,PE,1629846549,70,-3.7481,-73.2472,86.04,3.44
381,Ferme-Neuve,27,CA,1629846550,66,46.7001,-75.4493,76.39,4.47
382,Batticaloa,85,LK,1629846550,83,7.7102,81.6924,77.74,3.09
383,Porto-Novo,34,BJ,1629846550,89,6.4965,2.6036,76.35,5.79
384,Savonlinna,90,FI,1629846551,93,61.8699,28.88,48.25,2.3
385,Mackay,5,AU,1629846354,45,-21.15,149.2,66.04,17.54
386,Koslan,100,RU,1629846551,86,63.4564,48.8989,47.05,5.14
387,Bintulu,92,MY,1629846552,90,3.1667,113.0333,75.56,3.56
388,Kieta,97,PG,1629846552,68,-6.2167,155.6333,82.62,3.4
389,Marabba,69,SD,1629846552,72,12.35,32.1833,78.03,7.31
390,Yüksekova,0,TR,1629846553,36,37.5736,44.2872,60.91,4.21
391,Paita,18,PE,1629846553,78,-5.0892,-81.1144,67.14,20.11
392,Tigre,0,AR,1629846553,67,-34.426,-58.5796,55.29,5.75
393,Akçaabat,40,TR,1629846554,88,41.0212,39.5715,73.27,4.61
394,Grand Gaube,96,MU,1629846554,73,-20.0064,57.6608,67.37,1.99
395,Iqaluit,75,CA,1629846931,76,63.7506,-68.5145,44.33,3.44
396,Vestmannaeyjar,100,IS,1629846555,99,63.4427,-20.2734,55.67,19.89
397,Barentu,100,ER,1629846555,89,15.1139,37.5928,68.07,2.8
398,Saldanha,3,ZA,1629846555,91,-33.0117,17.9442,54.09,5.64
399,Hare Bay,100,CA,1629846556,92,48.8499,-54.0148,69.01,14.0
400,Tiarei,72,PF,1629846556,71,-17.5333,-149.3333,82.42,13.89
401,Muros,1,ES,1629846703,76,42.7762,-9.0603,72.23,6.85
402,Linfen,15,CN,1629846557,42,36.0889,111.5189,70.59,6.06
403,Dolores,58,AR,1629846557,59,-36.3132,-57.6792,45.3,4.25
404,Bow Island,84,CA,1629846557,43,49.8668,-111.3684,60.48,3.04
405,Henties Bay,3,NA,1629846558,87,-22.116,14.2845,54.86,4.65
406,Makakilo City,1,US,1629846685,57,21.3469,-158.0858,86.32,12.66
407,Emporia,1,US,1629846325,46,38.4039,-96.1817,93.4,17.27
408,São Paulo de Olivença,92,BR,1629846559,64,-3.3783,-68.8725,81.64,2.13
409,Terrace Bay,100,CA,1629846559,75,48.7834,-87.1,67.87,3.36
410,Cascais,2,PT,1629846559,77,38.6979,-9.4215,69.62,5.53
411,Verkhnyaya Toyma,100,RU,1629846560,98,62.2349,44.9985,50.16,4.97
412,Mhlume,32,SZ,1629846560,77,-26.0333,31.85,68.86,6.69
413,Deleni,100,RO,1629846560,91,47.4667,26.8833,67.95,10.13
414,Petropavlovsk-Kamchatskiy,0,RU,1629846561,60,53.0452,158.6483,68.59,4.47
415,Lovozero,100,RU,1629846561,80,68.005,35.0117,43.27,4.47
416,Pamekasan,9,ID,1629846562,77,-7.1568,113.4746,77.38,6.08
417,Salina Cruz,100,MX,1629846391,65,16.1667,-95.2,86.67,15.75
418,Kâhta,0,TR,1629846562,32,37.7855,38.6237,81.77,0.96
419,Mossamedes,0,AO,1629846935,64,-15.1961,12.1522,63.16,7.47
420,Praxédis Guerrero,30,MX,1629846563,21,31.3667,-106.0167,99.43,2.98
421,Kitgum,24,UG,1629846558,90,3.2783,32.8867,65.28,3.18
422,Newport Beach,20,US,1629846331,65,33.6189,-117.9289,98.74,5.99
423,Gizo Government Station,40,SB,1629846563,70,-8.103,156.8419,82.26,6.6
424,São Félix do Xingu,87,BR,1629846564,31,-6.6447,-51.995,87.1,1.34
425,Ola,100,RU,1629846564,92,59.5833,151.2833,54.63,5.95
426,Coquimbo,75,CL,1629846480,76,-29.9533,-71.3436,55.13,8.05
427,Lavumisa,0,SZ,1629846565,81,-27.31,31.892,61.88,2.77
428,Myaundzha,66,RU,1629846565,74,63.0494,147.1858,65.52,9.95
429,Pimentel,0,PE,1629846565,77,-6.8367,-79.9342,64.69,25.32
430,Luwingu,99,ZM,1629846566,39,-10.2621,29.9271,70.88,6.26
431,Kiama,100,AU,1629846566,85,-34.6833,150.8667,52.45,28.52
432,Sitka,90,US,1629846566,82,57.0531,-135.33,58.89,8.05
433,Mandalgovi,90,MN,1629846567,74,45.7625,106.2708,46.4,17.05
434,Kensington,75,AU,1629846567,64,-33.9167,151.2167,54.9,3.0
435,Pointe Michel,29,DM,1629846937,75,15.25,-61.3833,80.89,14.54
436,Kholm,92,RU,1629846568,95,59.2667,32.85,48.34,4.34
437,Lompoc,1,US,1629846568,69,34.6391,-120.4579,79.57,12.66
438,Los Llanos de Aridane,0,ES,1629846568,93,28.6585,-17.9182,71.35,12.66
439,Pahrump,0,US,1629846569,6,36.2083,-115.9839,100.69,5.01
440,Bāsugaon,100,IN,1629846569,98,26.4667,90.4,77.25,0.29
441,Belaya Gora,94,RU,1629846569,71,68.5333,146.4167,54.57,4.41
442,Acapulco de Juárez,91,MX,1629846121,74,16.8634,-99.8901,83.44,4.7
443,Talaya,100,RU,1629846570,61,61.3833,152.75,68.45,13.35
444,Kahului,40,US,1629846939,62,20.8947,-156.47,84.22,29.93
445,Oranjestad,40,AW,1629846368,83,12.524,-70.027,82.35,13.8
446,Fort-Shevchenko,100,KZ,1629846570,72,44.5086,50.263,79.66,13.09
447,Saurimo,81,AO,1629846571,69,-9.6608,20.3916,67.17,4.07
448,El Dorado,0,US,1629846571,33,38.7666,-120.5177,85.41,3.0
449,Quelimane,0,MZ,1629846572,94,-17.8786,36.8883,68.27,4.14
450,Ekhabi,100,RU,1629846572,88,53.5102,142.9671,61.32,14.18
451,Jalu,0,LY,1629846572,56,29.0331,21.5482,80.6,14.07
452,Mar del Plata,0,AR,1629846940,46,-38.0023,-57.5575,48.22,4.61
453,Salekhard,7,RU,1629846573,85,66.53,66.6019,43.86,7.67
454,Newport,34,GB,1629846573,83,51.5877,-2.9984,62.85,11.1
455,Las Cruces,40,US,1629846383,27,32.3123,-106.7783,98.13,1.01
456,Ludza,26,LV,1629846574,96,56.55,27.7167,46.38,2.95
457,Gorontalo,100,ID,1629846574,93,0.5412,123.0595,75.83,2.64
458,Morondava,0,MG,1629846574,80,-20.2833,44.2833,67.82,4.99
459,Dryden,97,CA,1629846712,37,49.7833,-92.7503,79.11,4.5
460,São Miguel do Araguaia,2,BR,1629846942,24,-13.275,-50.1628,84.11,2.86
461,Mangai,99,CD,1629846575,86,-4.05,19.5333,70.45,0.45
462,Fairbanks,90,US,1629846353,95,64.8378,-147.7164,57.6,4.61
463,Agüimes,20,ES,1629846575,68,27.9054,-15.4461,70.43,23.02
464,Ryōtsu-minato,100,JP,1629846576,87,38.0833,138.4333,78.12,16.02
465,Honiara,75,SB,1629846576,68,-9.4333,159.95,84.33,6.33
466,Paamiut,89,GL,1629846943,84,61.994,-49.6678,43.83,3.02
467,Tulun,93,RU,1629846577,94,54.5611,100.5792,48.56,3.33
468,Birao,100,CF,1629846943,93,10.2849,22.7882,71.1,3.83
469,Tual,100,ID,1629846577,80,-5.6667,132.75,80.37,17.96
470,Sivaki,14,RU,1629846578,84,52.6333,126.75,55.49,4.36
471,Creel,14,MX,1629846578,30,27.75,-107.6333,76.75,12.77
472,Bukachacha,95,RU,1629846579,80,52.9833,116.9167,52.75,3.02
473,Narsaq,92,GL,1629846579,80,60.9167,-46.05,53.82,1.41
474,Gambēla,90,ET,1629846579,88,8.25,34.5833,69.53,4.27
475,Codrington,99,AU,1629846580,64,-38.2667,141.9667,51.1,16.13
476,Rosetta,0,EG,1629846580,79,31.4044,30.4164,78.01,8.77
477,Leer,29,SS,1629846580,80,8.3018,30.1418,73.85,2.08
478,Isangel,40,VU,1629846581,61,-19.55,169.2667,78.91,13.8
479,Maceió,20,BR,1629846581,94,-9.6658,-35.7353,72.84,4.61
480,Makat,100,KZ,1629846582,30,47.6469,53.3463,82.78,5.99
481,Nakamura,99,JP,1629846582,90,32.9833,132.9333,79.92,3.33
482,São João da Barra,0,BR,1629846946,83,-21.6403,-41.0511,71.65,22.5
483,Tevriz,6,RU,1629846583,62,57.509,72.4042,63.81,4.03
484,Santa Fe,100,AR,1629846540,32,-31.6333,-60.7,60.03,3.0
485,Ambilobe,1,MG,1629846356,79,-13.2,49.05,62.74,4.38
486,Bambanglipuro,93,ID,1629846584,90,-7.95,110.2833,71.94,3.58
487,Atar,18,MR,1629846584,25,20.5169,-13.0499,97.2,4.92
488,Apache Junction,1,US,1629846584,19,33.4151,-111.5496,104.77,5.99
489,West Wendover,1,US,1629846585,10,40.7391,-114.0733,90.61,10.36
490,Touros,50,BR,1629846754,81,-5.1989,-35.4608,76.1,14.92
491,Aripuanã,41,BR,1629846319,34,-9.1667,-60.6333,84.54,2.06
492,Lüderitz,12,NA,1629846718,66,-26.6481,15.1594,57.81,7.02
493,Camacha,75,PT,1629846585,78,33.0833,-16.3333,72.36,11.5
494,Asău,87,RO,1629846586,93,46.4333,26.4,61.72,3.29
495,Prince George,23,CA,1629846365,44,53.9166,-122.753,71.62,1.01
496,Riberalta,25,BO,1629846586,49,-10.9833,-66.1,91.6,6.91
497,Jumla,100,NP,1629846587,96,29.2747,82.1838,62.58,0.31
498,Kenai,90,US,1629846587,79,60.5544,-151.2583,60.15,0.0
499,Vostok,100,RU,1629846719,69,46.4856,135.8833,66.34,2.51
500,Muravlenko,100,RU,1629846587,68,63.7898,74.523,60.03,8.05
501,Catherinas Lust,18,GY,1629846588,78,6.4,-57.6,81.1,10.58
502,Omsukchan,99,RU,1629846588,78,62.5333,155.8,60.3,12.91
503,Nālūt,0,LY,1629846589,25,30.3333,10.85,82.87,9.78
504,Ishigaki,57,JP,1629846589,79,24.3448,124.1572,83.35,14.61
505,Lorengau,83,PG,1629846950,82,-2.0226,147.2712,80.85,11.99
506,Reading,62,GB,1629846381,82,51.4562,-0.9711,60.51,1.99
507,Okato,77,NZ,1629846590,59,-39.2,173.8833,53.42,7.92
508,Bandar-e Lengeh,10,IR,1629846590,69,26.5579,54.8807,91.8,2.13
509,Carndonagh,13,IE,1629846590,88,55.25,-7.2667,58.66,2.37
510,Vernon,2,CA,1629846591,29,50.2581,-119.2691,80.13,3.0
511,Labuhan,22,ID,1629846591,81,-6.8844,112.2051,74.8,9.93
512,Corrente,79,BR,1629846591,77,-3.7367,-43.3394,77.99,6.58
513,Banjar,34,ID,1629846592,85,-8.19,114.9675,76.86,7.58
514,Nantucket,1,US,1629846592,71,41.2835,-70.0995,80.96,10.36
515,Kalemie,1,CD,1629846592,49,-5.9475,29.1947,73.49,2.71
516,Changchun,89,CN,1629846593,93,43.88,125.3228,67.06,7.63
517,Mikuni,100,JP,1629846593,91,36.2171,136.1519,77.02,8.88
518,Wembley,0,AU,1629846593,50,-31.9333,115.8,57.09,14.97
519,Qaqortoq,100,GL,1629846594,88,60.7167,-46.0333,54.1,4.25
520,Tabas,0,IR,1629846594,14,33.5959,56.9244,80.26,2.39
521,Tevaitoa,81,PF,1629846594,81,-16.7833,-151.5,78.35,20.36
522,Egvekinot,26,RU,1629846595,66,66.3167,-179.1667,35.17,4.54
523,Xining,10,CN,1629846595,72,36.6167,101.7667,46.62,2.53
524,Kupang,20,ID,1629846596,83,-10.1667,123.5833,77.58,6.91
525,Nagato,100,JP,1629846596,85,34.3833,131.2,80.73,13.56
526,Prainha,36,BR,1629846596,57,-1.8,-53.48,82.45,3.56
527,Rafai,84,CF,1629846597,98,4.95,23.9167,68.52,1.95
528,Pacific Grove,75,US,1629846953,81,36.6177,-121.9166,81.45,4.0
529,Altus,1,US,1629846597,37,34.6381,-99.334,99.91,7.0
530,Tilichiki,42,RU,1629846954,60,60.4667,166.1,54.19,4.18
531,Sungai Raya,98,ID,1629846598,90,0.7,108.9,75.2,7.02
532,Aswān,0,EG,1629846598,21,24.0934,32.907,88.68,10.98
533,Methóni,0,GR,1629846598,65,36.8197,21.7049,78.22,6.04
534,Bhānpurī,99,IN,1629846599,90,21.1,80.9167,76.26,6.22
535,Hienghène,36,NC,1629846599,71,-20.6833,164.9333,72.43,9.75
536,Banfora,57,BF,1629846600,80,10.6333,-4.7667,76.84,0.87
537,Rawson,31,AR,1629846600,45,-43.3002,-65.1023,47.95,9.33
538,Hanzhong,100,CN,1629846600,79,33.0728,107.0303,68.25,3.51
539,Gijang,89,KR,1629846955,93,35.2442,129.2139,78.53,4.45
540,Beruwala,60,LK,1629846601,88,6.4788,79.9828,76.44,4.65
541,Conde,75,BR,1629846601,83,-7.2597,-34.9075,76.46,8.05
542,Wawa,99,NG,1629846603,92,9.9022,4.4192,74.86,6.22
543,St. George's,10,GD,1629846604,77,12.0564,-61.7485,81.0,15.14
544,Ngama,52,TD,1629846605,70,11.7833,17.1667,80.65,5.37
545,Liepāja,20,LV,1629846605,93,56.5419,21.0367,53.65,0.0
546,Liverpool,0,GB,1629846606,85,53.4106,-2.9779,61.63,2.3
547,Berea,40,US,1629846395,58,41.3662,-81.8543,89.29,6.91
548,Khandyga,100,RU,1629846957,96,62.6667,135.6,64.09,4.5
549,Hay River,85,CA,1629846607,46,60.8156,-115.7999,67.41,9.71
550,Anadyr,20,RU,1629846958,57,64.75,177.4833,45.1,4.47
551,Celestún,96,MX,1629846608,72,20.8667,-90.4,85.51,18.1
552,Zhanakorgan,5,KZ,1629846608,21,43.9098,67.2495,81.36,8.77
553,Nema,100,RU,1629846609,96,57.5067,50.5011,52.93,5.68
554,Sīwah,0,EG,1629846609,32,29.2041,25.5195,83.59,6.02
555,Murray Bridge,21,AU,1629846609,83,-35.1167,139.2667,51.12,5.35
556,Lithgow,96,AU,1629846610,96,-33.4833,150.15,46.56,8.68
557,Ust-Nera,100,RU,1629846610,98,64.5667,143.2,61.23,5.35
558,Pinar del Río,87,CU,1629846611,63,22.4175,-83.6981,86.14,6.89
559,Boyolangu,48,ID,1629846611,93,-8.1181,111.8935,71.87,4.47
560,Shiraoi,100,JP,1629846611,97,42.55,141.35,66.38,15.55
561,Shawnee,1,US,1629846612,53,39.05,-95.7669,95.95,1.99
562,Dessie,69,ET,1629846612,71,11.1333,39.6333,52.41,3.6
563,Bengbu,8,CN,1629846396,93,32.9408,117.3608,71.91,5.97
564,Antalaha,39,MG,1629846613,83,-14.9003,50.2788,64.27,6.08
565,Linguère,56,SN,1629846613,70,15.3953,-15.1193,83.62,9.1
566,Comodoro Rivadavia,0,AR,1629846500,49,-45.8667,-67.5,46.26,3.44
567,Røros,20,NO,1629846613,82,62.5747,11.3842,51.64,21.85
568,Distrikt Brokopondo,72,SR,1629846614,63,4.75,-55.1667,83.64,5.01
569,Jodhpur,92,IN,1629846614,65,26.2867,73.03,82.31,19.73
570,Bundaberg,11,AU,1629846615,39,-24.85,152.35,58.62,10.58
571,Korfovskiy,2,RU,1629846615,70,48.2183,135.0564,69.26,3.87
572,Jiayuguan City,42,CN,1629846615,36,39.8167,98.3,56.62,1.48
573,Zalari,99,RU,1629846616,88,53.5584,102.5065,49.44,4.52
574,Chumikan,100,RU,1629846616,99,54.7183,135.315,56.5,3.62
575,Kibala,99,TD,1629846617,90,9.1104,18.3463,73.87,1.66
576,Terney,99,RU,1629846617,97,45.0503,136.6092,66.85,9.89
577,Lashio,100,MM,1629846617,100,22.9333,97.75,68.72,0.78
