,City,Cloudiness,Country,Date,Humidity,Lat,Lng,Max Temp,Wind Speed
0,Zhigansk,99,RU,1629766384,51,66.7697,123.3711,56.34,13.15
1,Ushuaia,75,AR,1629766563,56,-54.8,-68.3,37.06,16.11
2,Provideniya,90,RU,1629766217,81,64.3833,-173.3,46.51,11.18
3,Albany,90,US,1629766191,91,42.6001,-73.9662,72.16,4.97
4,Vaini,20,TO,1629766657,73,-21.2,-175.2,75.36,11.5
5,Burnie,2,AU,1629766658,48,-41.0667,145.9167,52.92,5.66
6,Saskylakh,100,RU,1629766660,84,71.9167,114.0833,47.55,9.93
7,Nantucket,90,US,1629766459,80,41.2835,-70.0995,75.54,10.36
8,Yellowknife,75,CA,1629766225,71,62.456,-114.3525,54.12,14.97
9,Yining,100,CN,1629766663,90,29.0361,114.5636,80.6,2.91
10,Qaanaaq,100,GL,1629766136,58,77.484,-69.3632,35.35,7.52
11,Jamestown,1,US,1629766555,78,42.097,-79.2353,76.59,10.36
12,Severo-Kuril'sk,100,RU,1629766138,89,50.6789,156.125,55.62,13.6
13,Rikitea,0,PF,1629766445,62,-23.1203,-134.9692,69.87,14.25
14,Kruisfontein,0,ZA,1629766232,68,-34.0033,24.7314,49.66,6.55
15,Susanville,1,US,1629766584,14,40.4163,-120.653,84.04,13.0
16,Dersca,23,RO,1629766697,78,47.9833,26.2,64.69,6.67
17,Souillac,20,MU,1629766446,64,-20.5167,57.5167,68.38,10.36
18,Kozan,10,TR,1629766699,67,37.4552,35.8157,80.38,2.33
19,Saint Paul Harbor,100,US,1629766147,97,57.79,-152.4072,54.16,7.76
20,Bluff,100,NZ,1629766148,62,-46.6,168.3333,61.81,16.46
21,Butaritari,2,KI,1629766703,74,3.0707,172.7902,82.69,12.91
22,Tiksi,100,RU,1629766151,75,71.6872,128.8694,50.29,7.14
23,Moose Factory,1,CA,1629766705,72,51.2585,-80.6094,60.8,5.75
24,Bengkulu,100,ID,1629766153,84,-3.8004,102.2655,77.07,4.05
25,George Town,20,MY,1629765910,84,5.4112,100.3354,79.9,0.0
26,Hithadhoo,7,MV,1629766246,75,-0.6,73.0833,82.11,11.72
27,Bardsīr,2,IR,1629766711,45,29.9227,56.5743,59.05,2.91
28,Busselton,0,AU,1629766159,68,-33.65,115.3333,53.04,12.86
29,Cape Town,20,ZA,1629766599,90,-33.9258,18.4232,54.12,1.99
30,Kavieng,100,PG,1629766252,88,-2.5744,150.7967,77.27,10.0
31,Ahipara,65,NZ,1629766253,67,-35.1667,173.1667,58.73,10.6
32,Arraial do Cabo,0,BR,1629766090,83,-22.9661,-42.0278,71.56,12.66
33,Tuatapere,100,NZ,1629766215,60,-46.1333,167.6833,62.82,8.34
34,Mataura,100,NZ,1629766448,60,-46.1927,168.8643,62.47,10.18
35,Ilulissat,100,GL,1629766260,66,69.2167,-51.1,44.71,7.14
36,Proletarskiy,78,RU,1629766723,56,50.7914,35.7731,55.49,5.01
37,Chicama,63,PE,1629766262,85,-7.8447,-79.1469,61.34,6.26
38,Hermanus,0,ZA,1629766264,88,-34.4187,19.2345,53.91,8.28
39,Hofn,100,IS,1629766728,98,64.2539,-15.2082,55.22,10.42
40,Chui,100,UY,1629766729,76,-33.6971,-53.4616,52.02,3.96
41,Bukachacha,18,RU,1629766268,60,52.9833,116.9167,63.61,5.84
42,Tashtagol,32,RU,1629766270,82,52.7657,87.8894,53.04,3.0
43,Kaitangata,99,NZ,1629766271,59,-46.2817,169.8464,61.83,5.39
44,Atuona,0,PF,1629766734,67,-9.8,-139.0333,77.76,15.84
45,Mar del Plata,0,AR,1629766274,87,-38.0023,-57.5575,41.02,3.44
46,Kisújszállás,100,HU,1629766275,90,47.2167,20.7667,63.99,8.39
47,Grindavik,90,IS,1629766738,100,63.8424,-22.4338,58.95,24.16
48,Port Blair,100,IN,1629766277,77,11.6667,92.75,81.9,10.4
49,Dikson,100,RU,1629766279,94,73.5069,80.5464,40.42,21.56
50,Henties Bay,1,NA,1629766280,93,-22.116,14.2845,54.86,3.76
51,Zyryanka,44,RU,1629766283,66,65.75,150.85,54.54,4.47
52,Katsuura,100,JP,1629766284,80,35.1333,140.3,82.51,8.75
53,Pacific Grove,75,US,1629766285,80,36.6177,-121.9166,74.57,4.0
54,Puerto Ayora,98,EC,1629766287,87,-0.7393,-90.3518,70.56,8.01
55,Conakry,98,GN,1629766288,81,9.538,-13.6773,78.53,6.46
56,Gboko,52,NG,1629766290,92,7.3179,8.9951,73.27,9.53
57,Jumla,94,NP,1629766291,92,29.2747,82.1838,62.35,0.89
58,Morón,3,AR,1629766292,48,-34.6534,-58.6198,53.35,4.23
59,Severnoye,2,RU,1629766294,87,56.3491,78.3619,66.15,3.18
60,Waipawa,21,NZ,1629766296,67,-41.4122,175.5153,54.45,17.81
61,Barrow,90,US,1629766298,80,71.2906,-156.7887,33.82,3.44
62,Canatlán,40,MX,1629766299,49,24.5167,-104.7833,71.49,5.99
63,Torbay,90,CA,1629766300,72,47.6666,-52.7314,66.27,23.02
64,Dudinka,100,RU,1629766302,94,69.4058,86.1778,57.49,21.81
65,Moindou,53,NC,1629766303,47,-21.6924,165.677,76.95,8.03
66,Brainerd,1,US,1629766306,28,46.358,-94.2008,84.22,3.44
67,Awjilah,0,LY,1629766307,39,29.1081,21.2869,79.02,11.16
68,Chokurdakh,99,RU,1629766766,65,70.6333,147.9167,47.26,9.64
69,Abong Mbang,83,CM,1629766767,95,3.9833,13.1833,69.17,2.55
70,Lebu,10,CL,1629766768,77,-37.6167,-73.65,45.28,10.25
71,Avarua,40,CK,1629766770,94,-21.2078,-159.775,77.05,5.75
72,Buchanan,91,LR,1629766771,89,5.8808,-10.0467,75.16,2.75
73,St. George's,75,GD,1629766773,94,12.0564,-61.7485,78.48,8.05
74,Yarmouth,90,US,1629766775,95,41.7057,-70.2286,75.31,5.99
75,Saint-Philippe,55,RE,1629766777,74,-21.3585,55.7679,63.95,11.63
76,Ponta do Sol,1,PT,1629766779,76,32.6667,-17.1,74.03,3.83
77,Changde,100,CN,1629766780,96,29.0464,111.6783,74.98,3.29
78,Takoradze,100,GH,1629766781,93,4.8845,-1.7554,75.13,5.41
79,Killybegs,30,IE,1629766783,92,54.6333,-8.45,57.45,4.79
80,Lavrentiya,100,RU,1629766784,96,65.5833,-171.0,44.71,7.2
81,Aklavik,100,CA,1629766786,47,68.2191,-135.0107,59.83,0.81
82,Castro,0,BR,1629766698,48,-24.7911,-50.0119,64.15,3.11
83,Punta Arenas,90,CL,1629766746,75,-53.15,-70.9167,37.51,18.41
84,Itoman,20,JP,1629766789,81,26.1247,127.6694,88.18,12.66
85,Cidreira,46,BR,1629766792,85,-30.1811,-50.2056,60.4,12.88
86,Christchurch,8,NZ,1629766569,37,-43.5333,172.6333,68.2,10.36
87,Malé,12,MV,1629766575,76,4.1748,73.5089,81.05,10.74
88,Tilichiki,100,RU,1629766797,91,60.4667,166.1,52.3,12.91
89,Hilo,61,US,1629766798,92,19.7297,-155.09,80.26,1.99
90,Grand Gaube,76,MU,1629766799,67,-20.0064,57.6608,68.4,4.0
91,Jalu,0,LY,1629766801,39,29.0331,21.5482,79.11,11.32
92,Yangi Marg`ilon,0,UZ,1629766803,31,40.4272,71.7189,78.22,9.22
93,Saquarema,0,BR,1629766804,81,-22.92,-42.5103,68.97,11.59
94,San Patricio,11,US,1629766806,63,28.017,-97.5169,89.69,11.59
95,Timrå,40,SE,1629766808,90,62.487,17.3257,47.68,8.05
96,Ancud,9,CL,1629766810,81,-41.8697,-73.8203,38.43,3.67
97,Vrangel',100,RU,1629766811,77,42.7297,133.0839,71.56,11.74
98,Hobart,20,AU,1629766691,65,-42.8794,147.3294,51.26,3.0
99,Kuršėnai,11,LT,1629766814,92,55.985,22.9189,52.05,6.62
100,Bredasdorp,0,ZA,1629766816,95,-34.5322,20.0403,47.28,7.05
101,Khatanga,32,RU,1629766817,74,71.9667,102.5,49.06,5.66
102,Salalah,42,OM,1629766819,89,17.0151,54.0924,76.93,7.34
103,Tezu,100,IN,1629766820,99,27.9167,96.1667,75.72,0.87
104,Daphne,1,US,1629766822,88,30.6035,-87.9036,83.52,0.0
105,Kulunda,3,RU,1629766823,80,52.566,78.9385,65.03,7.67
106,Walvis Bay,17,NA,1629766825,92,-22.9575,14.5053,55.09,2.37
107,Port Alfred,0,ZA,1629766827,68,-33.5906,26.891,57.49,10.42
108,Krasnyy Chikoy,100,RU,1629766829,91,50.3643,108.7512,53.1,5.08
109,Teyateyaneng,100,LS,1629766831,80,-29.1472,27.7489,52.3,4.36
110,Kapaa,90,US,1629766832,79,22.0752,-159.319,80.92,5.99
111,New Norfolk,9,AU,1629766834,62,-42.7826,147.0587,50.92,3.49
112,Horta,100,PT,1629766835,94,38.5333,-28.6333,72.7,17.87
113,Bela Vista,41,BR,1629766837,30,-22.1089,-56.5211,82.87,5.59
114,Upernavik,100,GL,1629766839,67,72.7868,-56.1549,46.76,5.95
115,Carnarvon,0,AU,1629766841,51,-24.8667,113.6333,70.65,12.64
116,Vila Velha,1,BR,1629766842,83,-20.3297,-40.2925,70.66,11.1
117,Arman',72,RU,1629766844,81,59.7,150.1667,62.65,5.46
118,Faya,40,SA,1629766845,29,18.3851,42.4509,69.31,5.5
119,Taikang,71,CN,1629766847,71,46.8333,124.4167,71.82,6.4
120,Pisco,1,PE,1629766848,83,-13.7,-76.2167,62.02,0.58
121,Norman Wells,100,CA,1629766850,45,65.282,-126.8329,66.52,7.05
122,Touros,9,BR,1629766852,80,-5.1989,-35.4608,76.41,15.26
123,Port Hardy,9,CA,1629766822,74,50.6996,-127.4199,60.42,10.09
124,Yatou,100,CN,1629766854,93,37.15,122.3833,72.61,15.97
125,Najrān,100,SA,1629766856,27,17.4924,44.1277,77.65,3.65
126,Mildura,1,AU,1629766857,60,-34.2,142.15,52.07,23.2
127,Airai,40,TL,1629766859,45,-8.9266,125.4092,73.29,4.05
128,Sitka,21,US,1629766860,59,57.0531,-135.33,62.55,4.9
129,Philadelphia,0,US,1629766591,89,39.9523,-75.1638,79.36,4.97
130,Shenjiamen,100,CN,1629766863,85,29.9576,122.298,82.58,13.62
131,Mumford,100,GH,1629766864,92,5.2618,-0.759,75.25,7.92
132,Pokoynoye,100,RU,1629766866,66,44.8097,44.2517,71.74,4.97
133,Qinhuangdao,11,CN,1629766867,80,39.9317,119.5883,73.09,4.52
134,Barcelos,0,PT,1629766830,49,41.5388,-8.6151,77.29,4.45
135,San Cristobal,100,VE,1629766586,97,7.7669,-72.225,73.58,2.15
136,Tigil',98,RU,1629766871,59,57.8,158.6667,68.27,23.2
137,Nikolskoye,100,RU,1629766872,96,59.7035,30.7861,46.29,5.32
138,Vostok,0,RU,1629766874,47,46.4856,135.8833,78.13,4.14
139,Mahébourg,75,MU,1629766875,60,-20.4081,57.7,70.09,11.5
140,Laas,9,IT,1629766877,92,46.6166,10.7002,54.34,5.53
141,Safi,97,MA,1629766878,84,32.2994,-9.2372,70.39,9.78
142,Cabo San Lucas,100,MX,1629766879,75,22.8909,-109.9124,91.15,10.4
143,Siuna,100,NI,1629766881,96,13.7332,-84.7773,74.71,3.13
144,Fengzhen,3,CN,1629766882,47,40.4394,113.1536,56.95,13.94
145,Buraidah,0,SA,1629766883,21,26.326,43.975,85.59,8.41
146,Inhambane,0,MZ,1629766885,90,-23.865,35.3833,65.97,5.03
147,Banjar,8,ID,1629766886,63,-8.19,114.9675,80.46,4.76
148,Marzuq,26,YE,1629766888,54,14.4,46.4667,77.13,4.63
149,Owando,100,CG,1629766889,81,-0.4819,15.8999,74.08,3.15
150,Guéret,33,FR,1629766890,99,46.1667,1.8667,57.83,2.53
151,Lata,0,PT,1629766892,72,40.1629,-8.3327,63.81,1.86
152,Neuquén,0,AR,1629766758,60,-38.9516,-68.0591,40.89,0.0
153,Bambous Virieux,75,MU,1629766894,60,-20.3428,57.7575,70.05,11.5
154,Pevek,7,RU,1629766896,71,69.7008,170.3133,37.06,5.35
155,Jimo,100,CN,1629766897,90,36.3897,120.4622,75.4,10.42
156,Tasiilaq,98,GL,1629766898,82,65.6145,-37.6368,50.16,5.7
157,Banda Aceh,100,ID,1629766900,81,5.5577,95.3222,80.1,9.71
158,Colares,2,PT,1629766901,75,38.7992,-9.4469,67.78,7.36
159,Benalla,13,AU,1629766902,63,-36.55,145.9833,51.37,15.35
160,Roald,90,NO,1629766876,93,62.5833,6.1333,56.16,5.75
161,Lüderitz,0,NA,1629766906,64,-26.6481,15.1594,56.28,9.71
162,Batemans Bay,100,AU,1629766907,93,-35.7167,150.1833,51.91,17.36
163,Vestmannaeyjar,100,IS,1629766909,98,63.4427,-20.2734,55.56,22.08
164,Esperance,89,AU,1629766910,66,-33.8667,121.9,52.81,10.96
165,Nakusp,71,CA,1629766912,69,50.2499,-117.8023,61.47,3.78
166,Antofagasta,64,CL,1629766913,84,-23.65,-70.4,55.67,6.42
167,Rosa Zarate,99,EC,1629766916,93,0.3333,-79.4667,72.57,4.32
168,Nortelândia,0,BR,1629766917,32,-14.4547,-56.8028,81.03,5.1
169,Clyde River,100,CA,1629766919,97,70.4692,-68.5914,34.47,12.26
170,Cabras,1,IT,1629766920,65,39.93,8.5314,69.76,6.24
171,Abnūb,0,EG,1629766921,28,27.2696,31.1511,82.22,5.91
172,Tānsen,100,NP,1629766923,94,27.8673,83.5467,67.1,2.3
173,Sioux Lookout,83,CA,1629766924,75,50.1001,-91.917,64.78,10.42
174,Japura,100,ID,1629766926,89,-0.3167,102.35,76.42,1.88
175,Asău,2,RO,1629766927,92,46.4333,26.4,64.76,3.8
176,East London,1,ZA,1629766928,63,-33.0153,27.9116,60.19,5.79
177,Anjozorobe,48,MG,1629766930,89,-18.4,47.8667,57.52,4.34
178,Broome,0,US,1629766931,93,42.2506,-75.833,74.68,2.98
179,Kirakira,21,SB,1629766933,71,-10.4544,161.9205,83.21,15.35
180,Aloleng,99,PH,1629766934,73,16.1307,119.7824,84.22,8.37
181,Kloulklubed,96,PW,1629766935,71,7.0419,134.2556,84.7,6.42
182,Shingū,100,JP,1629766937,62,33.7333,135.9833,83.91,10.67
183,Hong Kong,100,HK,1629766806,81,22.2855,114.1577,88.97,1.01
184,Olinda,54,BR,1629766939,85,-8.0089,-34.8553,75.15,11.97
185,Port Lincoln,86,AU,1629766821,58,-34.7333,135.8667,53.58,12.71
186,Araouane,12,ML,1629766942,24,18.9048,-3.5265,95.54,9.35
187,Tura,100,IN,1629766943,96,25.5198,90.2201,76.01,3.96
188,Pahrump,0,US,1629766946,12,36.2083,-115.9839,99.1,1.99
189,Hamilton,4,US,1629766772,76,39.1834,-84.5333,84.42,3.36
190,Dingle,100,PH,1629766948,89,10.9995,122.6711,77.5,0.81
191,Sablé-sur-Sarthe,11,FR,1629766923,87,47.8376,-0.3329,61.05,10.07
192,Toyooka,100,JP,1629766952,94,35.5333,134.8333,77.2,9.46
193,Makakilo City,90,US,1629766915,88,21.3469,-158.0858,79.12,11.5
194,Saint-Joseph,27,RE,1629766955,72,-21.3667,55.6167,62.96,11.99
195,Necochea,81,AR,1629766810,57,-38.5473,-58.7368,41.25,8.46
196,Bloemhof,96,ZA,1629766957,47,-27.6469,25.607,63.36,11.9
197,Hancheng,14,CN,1629766958,74,32.5186,112.3522,76.95,4.85
198,Coquimbo,6,CL,1629766960,75,-29.9533,-71.3436,52.65,4.32
199,Cururupu,100,BR,1629766961,91,-1.8283,-44.8683,74.62,4.12
200,Tarakan,75,ID,1629766963,89,3.3,117.6333,80.1,3.44
201,Maceió,75,BR,1629766676,88,-9.6658,-35.7353,74.64,3.44
202,Talnakh,100,RU,1629766965,93,69.4865,88.3972,54.73,18.21
203,Hualmay,37,PE,1629766967,84,-11.0964,-77.6139,61.56,8.72
204,Harper,100,LR,1629766968,91,4.375,-7.7169,75.34,5.46
205,Taltal,15,CL,1629766879,79,-25.4,-70.4833,56.12,4.38
206,Thompson,100,CA,1629766972,56,55.7435,-97.8558,54.48,4.32
207,Leningradskiy,88,RU,1629766973,89,69.3833,178.4167,32.88,8.46
208,Plettenberg Bay,0,ZA,1629766974,75,-34.0527,23.3716,53.22,9.69
209,Cockburn Town,1,TC,1629766762,75,21.4612,-71.1419,83.01,18.01
210,Kahului,90,US,1629766977,82,20.8947,-156.47,82.42,8.05
211,Belyy Yar,0,RU,1629766978,87,53.6039,91.3903,48.09,2.24
212,Skibbereen,96,IE,1629766980,93,51.55,-9.2667,60.6,7.49
213,Ribeira Grande,100,PT,1629766981,94,38.5167,-28.7,73.45,18.84
214,Fujin,0,CN,1629766984,66,47.26,132.0322,76.95,6.35
215,Hirara,85,JP,1629766985,84,24.8,125.2833,82.74,15.48
216,Yulara,100,AU,1629766987,34,-25.2406,130.9889,55.71,20.89
217,Noshiro,100,JP,1629766988,61,40.2039,140.0242,79.45,3.98
218,Port Hedland,0,AU,1629766991,16,-20.3167,118.5667,77.05,17.27
219,Erenhot,100,CN,1629766992,69,43.6475,111.9767,54.19,18.81
220,Fortuna,20,US,1629766994,66,40.5982,-124.1573,76.42,4.0
221,Morant Bay,38,JM,1629766996,86,17.8815,-76.4093,82.65,8.3
222,Kavaratti,93,IN,1629766997,76,10.5669,72.642,80.73,3.94
223,Chumikan,100,RU,1629767000,98,54.7183,135.315,56.19,7.49
224,College,90,US,1629767001,96,64.8569,-147.8028,57.52,0.0
225,Abonnema,23,NG,1629767004,92,4.7084,6.7931,75.67,4.85
226,Mazamari,92,PE,1629767005,56,-11.3258,-74.5308,79.72,1.48
227,Bayburt,40,TR,1629767007,80,40.2589,40.2278,56.62,4.25
228,Nouadhibou,1,MR,1629767008,74,20.931,-17.0347,74.12,17.9
229,Prieska,0,ZA,1629767009,22,-29.6641,22.7474,53.73,6.26
230,Tateyama,100,JP,1629767011,84,34.9833,139.8667,82.42,6.31
231,Chauk,100,MM,1629767012,76,20.8833,94.8167,80.49,12.19
232,Kilgore,0,US,1629766828,59,32.3863,-94.8758,90.72,1.95
233,Baykit,100,RU,1629767015,81,61.67,96.37,54.43,1.81
234,Atar,87,MR,1629767016,47,20.5169,-13.0499,87.35,4.94
235,Avera,33,US,1629767017,56,33.194,-82.5271,81.91,1.59
236,Lewisporte,82,CA,1629767019,68,49.2499,-55.0482,67.55,9.24
237,Piopio,7,NZ,1629767020,47,-38.4667,175.0167,58.96,3.67
238,Ponta Delgada,75,PT,1629767023,83,37.7333,-25.6667,75.92,12.66
239,Wanning,30,CN,1629767024,71,18.8003,110.3967,86.41,8.48
240,Longyearbyen,75,SJ,1629766891,87,78.2186,15.6401,42.64,8.05
241,Catió,100,GW,1629767027,87,11.2833,-15.25,77.14,7.38
242,Saint Anthony,1,US,1629767028,46,45.0205,-93.218,85.93,0.0
243,São Miguel do Araguaia,0,BR,1629767029,28,-13.275,-50.1628,80.13,5.37
244,Iqaluit,100,CA,1629767032,92,63.7506,-68.5145,39.97,12.28
245,Tuktoyaktuk,100,CA,1629767033,83,69.4541,-133.0374,47.43,13.0
246,Cherskiy,10,RU,1629767035,35,68.75,161.3,54.18,5.5
247,Arrondissement d'Ajaccio,0,FR,1629766965,68,42.0,8.9167,69.85,5.75
248,Loukhi,100,RU,1629767037,79,66.0764,33.0381,43.61,3.8
249,Saint-Augustin,100,CA,1629767038,70,51.226,-58.6502,72.52,4.88
250,Talara,87,PE,1629767040,91,-4.5772,-81.2719,63.82,16.84
251,Carauari,100,BR,1629767041,43,-4.8828,-66.8958,85.6,2.95
252,Saldanha,0,ZA,1629767044,92,-33.0117,17.9442,54.5,3.91
253,Ayr,20,GB,1629767045,94,55.4627,-4.6339,59.49,2.3
254,Balsas,92,BR,1629766830,33,-7.5325,-46.0356,84.78,3.18
255,Stavern,100,NO,1629767048,97,59.0,10.0333,57.36,7.81
256,Pagudpud,91,PH,1629767049,68,18.5616,120.7868,84.9,2.06
257,Sørland,100,NO,1629767050,80,67.667,12.6934,51.78,12.66
258,Saint George,0,US,1629766811,11,37.1041,-113.5841,99.07,4.0
259,San Onofre,100,CO,1629767053,88,9.7359,-75.5263,78.93,3.71
260,Mehamn,100,NO,1629767054,83,71.0357,27.8492,43.63,7.74
261,Charters Towers,3,AU,1629767056,37,-20.1,146.2667,71.2,18.05
262,Guarujá,0,BR,1629767057,54,-23.9931,-46.2564,84.16,4.54
263,Evensk,92,RU,1629767058,85,61.95,159.2333,55.6,2.08
264,Porirua,66,NZ,1629767060,76,-41.1333,174.85,57.54,15.01
265,Rayong,88,TH,1629767061,78,12.8333,101.4333,81.28,2.71
266,Narrabri,99,AU,1629767063,83,-30.3167,149.7833,51.53,5.01
267,Buala,100,SB,1629767064,67,-8.145,159.5921,84.4,15.46
268,Atasū,57,KZ,1629767066,45,48.6814,71.6433,60.78,11.52
269,Egvekinot,100,RU,1629767068,92,66.3167,-179.1667,33.28,11.16
270,Luleå,29,SE,1629767069,93,65.5842,22.1547,41.07,4.61
271,Naantali,0,FI,1629767072,81,60.4674,22.0243,48.11,5.75
272,Yenotayevka,8,RU,1629767073,77,47.2456,47.0281,67.17,10.0
273,Beloha,0,MG,1629767074,95,-25.1667,45.05,62.92,4.16
274,Geraldton,0,AU,1629767076,54,-28.7667,114.6,57.61,12.66
275,Muravlenko,89,RU,1629767077,72,63.7898,74.523,66.52,10.58
276,Sakakah,0,SA,1629767078,20,29.9697,40.2064,87.12,0.76
277,Derzhavīnsk,0,KZ,1629767080,54,51.1,66.3167,64.87,10.58
278,Lompoc,20,US,1629767082,76,34.6391,-120.4579,73.54,9.22
279,Dubovskoye,8,RU,1629767084,89,47.4092,42.7575,63.03,7.58
280,Kingaroy,100,AU,1629767085,64,-26.5333,151.8333,52.11,14.43
281,Isangel,40,VU,1629767086,50,-19.55,169.2667,78.91,11.5
282,Bhālki,22,IN,1629767089,84,18.0333,77.2167,73.83,4.07
283,Port-Cartier,100,CA,1629767090,90,50.0334,-66.8654,66.74,1.97
284,Bethanien,0,NA,1629767092,40,-26.502,17.1583,52.5,3.65
285,Sur,3,OM,1629766870,70,22.5667,59.5289,81.03,9.01
286,Koslan,100,RU,1629767095,97,63.4564,48.8989,46.44,5.48
287,Coyhaique,0,CL,1629767097,64,-45.5752,-72.0662,36.21,2.3
288,Cayenne,0,GF,1629766806,83,4.9333,-52.3333,82.09,3.0
289,Bolshevik,100,BY,1629767099,72,54.0065,27.5692,49.62,6.31
290,Nabire,100,ID,1629767101,90,-3.3667,135.4833,76.51,2.04
291,Aripuanã,0,BR,1629767102,36,-9.1667,-60.6333,77.14,1.32
292,Bentiu,100,SS,1629767105,89,9.2333,29.8333,69.33,2.33
293,Igra,100,RU,1629767106,93,57.5558,53.0547,59.38,4.45
294,Tres Arroyos,100,AR,1629767107,44,-38.3739,-60.2798,39.16,5.5
295,Codajás,19,BR,1629767109,49,-3.8367,-62.0569,79.77,3.0
296,Vila do Maio,62,CV,1629767110,81,15.1333,-23.2167,81.39,12.5
297,Portland,1,US,1629766936,45,45.5234,-122.6762,75.56,1.99
298,Yichang,100,CN,1629767112,95,30.7144,111.2847,76.77,0.94
299,Tabou,87,CI,1629767114,91,4.423,-7.3528,75.07,5.12
300,Williams Lake,98,CA,1629767115,64,52.1415,-122.1445,53.42,1.39
301,Leningori,98,GE,1629767117,85,42.126,44.4833,69.31,4.07
302,Akdepe,0,TM,1629767119,48,42.0551,59.3788,69.89,9.28
303,Mount Isa,6,AU,1629767120,22,-20.7333,139.5,62.37,16.11
304,Pangai,0,TO,1629767122,66,-19.8,-174.35,73.09,16.78
305,Arbazh,100,RU,1629767123,68,57.6804,48.3065,53.67,3.58
306,Tombouctou,41,ML,1629767124,21,20.0,-3.0,96.1,10.69
307,Lethem,88,GY,1629767126,71,3.3803,-59.7968,79.74,3.74
308,Regidor,100,CO,1629767127,94,8.6657,-73.8215,76.73,1.88
309,Coahuayana Viejo,96,MX,1629767129,86,18.7333,-103.6833,83.68,3.11
310,Jiblah,88,YE,1629767130,72,13.9216,44.1467,63.66,3.4
311,Klaksvík,100,FO,1629767131,99,62.2266,-6.589,54.52,9.73
312,Zunyi,100,CN,1629767133,90,27.6867,106.9072,73.62,2.26
313,Fort Nelson,91,CA,1629767134,41,58.8053,-122.7002,63.86,2.84
314,Conceição do Araguaia,37,BR,1629767135,33,-8.2578,-49.2647,79.9,2.01
315,Moerai,100,PF,1629767137,88,-22.4333,-151.3333,74.68,17.13
316,Ossora,79,RU,1629767138,68,59.2353,163.0719,66.97,7.16
317,Porto Velho,0,BR,1629767139,65,-8.7619,-63.9039,78.85,0.0
318,Puerto Quijarro,0,BO,1629767142,32,-17.7833,-57.7667,80.56,1.21
319,Nanortalik,14,GL,1629767143,79,60.1432,-45.2371,44.96,8.01
320,Bairnsdale,100,AU,1629767145,89,-37.8333,147.6167,48.74,11.36
321,Lamar,1,US,1629767147,67,33.6668,-95.5836,89.26,5.75
322,Westport,40,US,1629766891,93,41.1415,-73.3579,76.82,5.01
323,Viedma,34,AR,1629767150,45,-40.8135,-62.9967,41.18,7.63
324,Bonavista,99,CA,1629767151,78,48.6499,-53.1147,67.12,15.84
325,Qaqortoq,13,GL,1629767154,74,60.7167,-46.0333,54.1,1.79
326,Olafsvik,100,IS,1629767155,97,64.8945,-23.7142,56.19,17.2
327,Puerto Escondido,100,MX,1629767145,82,15.85,-97.0667,80.92,4.14
328,Ferreira do Alentejo,0,PT,1629767159,76,38.05,-8.0333,66.88,4.97
329,Chacaltianguis,100,MX,1629767160,93,18.3333,-95.8333,75.47,6.33
330,La Ronge,100,CA,1629767162,62,55.1001,-105.2842,53.96,8.25
331,Poum,54,NC,1629767163,64,-20.2333,164.0167,73.53,19.51
332,Longaví,31,CL,1629767164,86,-35.9667,-71.6833,44.11,4.54
333,Östersund,94,SE,1629767166,71,63.1792,14.6357,48.65,5.75
334,Peebles,100,GB,1629767167,94,55.6519,-3.1888,57.7,0.83
335,Fallon,90,US,1629767145,11,39.4735,-118.7774,89.47,4.61
336,Vardø,85,NO,1629767170,72,70.3705,31.1107,43.48,6.33
337,Port-Gentil,100,GA,1629767171,83,-0.7193,8.7815,75.7,15.28
338,Mayo,1,US,1629767172,85,38.8876,-76.5119,85.08,1.01
339,Gravdal,100,NO,1629767174,79,68.1214,13.5031,50.72,11.1
340,San Quintín,0,MX,1629767175,70,30.4833,-115.95,71.47,12.21
341,Baruun-Urt,100,MN,1629767177,95,46.6806,113.2792,54.75,19.48
342,Faanui,5,PF,1629767178,76,-16.4833,-151.75,79.07,13.58
343,Kameno,0,BG,1629767179,94,42.5667,27.3,64.69,0.0
344,São Filipe,100,CV,1629767181,77,14.8961,-24.4956,79.65,10.74
345,Bereda,40,ES,1629767182,100,43.2686,-7.5406,64.15,7.23
346,Kitimat,50,CA,1629767184,56,54.0524,-128.6534,68.92,4.23
347,Mahanoro,79,MG,1629767185,88,-19.9,48.8,68.29,6.91
348,Watertown,75,US,1629766663,94,42.3709,-71.1828,73.56,1.99
349,Chimoré,100,BO,1629767188,42,-16.9833,-65.1333,85.6,1.9
350,Byron Bay,97,AU,1629766989,76,-28.65,153.6167,64.18,17.38
351,Itarema,15,BR,1629767190,73,-2.9248,-39.9167,79.79,14.79
352,Copiapó,100,CL,1629767193,77,-27.3667,-70.3333,49.69,1.63
353,Magburaka,100,SL,1629767194,98,8.7167,-11.95,71.94,1.32
354,Mahon,0,ES,1629767196,60,39.8885,4.2658,75.76,14.97
355,Hobyo,12,SO,1629767197,84,5.3505,48.5268,76.48,21.32
356,Williamsport,20,US,1629767198,87,41.2412,-77.0011,77.38,0.0
357,Torres,26,BR,1629767200,84,-29.3353,-49.7269,60.82,0.96
358,Chauny,6,FR,1629767201,94,49.6151,3.2186,60.85,6.6
359,Mutoko,4,ZW,1629767202,91,-17.397,32.2268,54.21,3.33
360,Adrar,42,MR,1629767204,35,20.5022,-10.0711,88.36,5.84
361,Beringovskiy,100,RU,1629767205,87,63.05,179.3167,52.23,0.98
362,Kassala,100,SD,1629767207,79,15.451,36.4,76.12,10.87
363,Phalaborwa,0,ZA,1629767208,81,-23.943,31.1411,61.32,5.53
364,Cartagena,75,CO,1629767150,100,10.3997,-75.5144,82.02,5.75
365,Erzin,51,TR,1629767210,90,36.9559,36.2,80.01,3.36
366,Hermosillo,40,MX,1629767176,44,29.0667,-110.9667,98.51,8.99
367,Mweka,100,CD,1629767214,92,-4.85,21.5667,69.75,2.91
368,Oliveira dos Brejinhos,34,BR,1629767216,59,-12.3169,-42.8961,71.04,6.93
369,Preobrazheniye,100,RU,1629767217,71,42.9019,133.9064,72.5,10.8
370,Knyaze-Volkonskoye,100,RU,1629767218,73,48.4642,135.4567,73.74,6.06
371,North Bend,1,US,1629767110,67,43.4065,-124.2243,65.91,28.77
372,Zachepylivka,34,UA,1629767221,45,49.1939,35.2394,59.94,6.87
373,Port Elizabeth,0,ZA,1629767222,71,-33.918,25.5701,52.09,5.75
374,Ratne,100,UA,1629767223,96,51.6683,24.5303,56.61,13.89
375,Mezen',100,RU,1629767225,86,65.8522,44.24,44.17,5.06
376,Vallenar,100,CL,1629767226,78,-28.5708,-70.7581,50.99,2.62
377,Dedovichi,91,RU,1629767228,80,57.5517,29.9502,48.69,6.91
378,Kalmunai,72,LK,1629767229,82,7.4167,81.8167,77.0,7.14
379,Kumul,0,CN,1629767230,15,42.8,93.45,75.96,2.46
380,Yonago,100,JP,1629767232,85,35.4333,133.3333,78.55,15.43
381,São Domingos do Maranhão,90,BR,1629767233,37,-5.5758,-44.3853,82.87,1.54
382,Pindiga,21,NG,1629767236,88,9.9833,10.9333,71.94,2.53
383,Berlevåg,100,NO,1629767237,76,70.8578,29.0864,43.18,4.99
384,Bursa,1,TR,1629767238,78,40.1667,29.0833,55.44,4.74
385,Bethel,90,US,1629767173,93,41.3712,-73.414,74.19,6.91
386,Kuznechnoye,100,RU,1629767241,93,61.12,29.8686,49.68,10.58
387,Evanston,40,US,1629767242,69,42.0411,-87.6901,84.31,1.01
388,Wenling,100,CN,1629767245,89,28.3669,121.36,82.98,15.17
389,Padang,100,ID,1629767246,87,-0.9492,100.3543,75.25,2.53
390,Kifrī,0,IQ,1629767249,11,34.6959,44.9661,93.81,4.68
391,Karatsu,97,JP,1629767250,83,33.4425,129.9697,84.09,19.98
392,Bathsheba,40,BB,1629767252,94,13.2167,-59.5167,79.41,14.97
393,Ust'-Kulom,100,RU,1629767253,96,61.6864,53.6902,51.46,4.36
394,Medicine Hat,63,CA,1629767254,73,50.0501,-110.6683,56.17,14.94
395,Colquechaca,0,BO,1629767257,14,-18.6667,-66.0167,36.45,0.67
396,Comodoro Rivadavia,20,AR,1629767258,56,-45.8667,-67.5,37.26,13.8
397,Luanda,100,AO,1629766960,84,-8.8368,13.2343,71.28,10.33
398,Ankpa,100,NG,1629767261,97,7.3706,7.6253,70.63,4.45
399,Kenai,90,US,1629767160,86,60.5544,-151.2583,60.89,10.36
400,Taitung City,40,TW,1629767263,66,22.7583,121.1444,88.07,5.75
401,Zhangye,0,CN,1629767265,22,38.9342,100.4517,66.13,1.23
402,Khandyga,95,RU,1629767268,85,62.6667,135.6,69.17,3.27
403,Caravelas,0,BR,1629767270,79,-17.7125,-39.2481,71.58,8.84
404,The Valley,98,AI,1629767271,77,18.217,-63.0578,84.06,18.19
405,Tieling,97,CN,1629767272,71,42.2931,123.8414,76.8,8.37
406,Villa Carlos Paz,0,AR,1629767095,29,-31.4241,-64.4978,51.08,5.64
407,Troy,1,US,1629767093,69,42.6056,-83.1499,80.67,3.44
408,Ust'-Ishim,4,RU,1629767276,66,57.6935,71.1665,66.56,4.23
409,Taupo,16,NZ,1629767277,62,-38.6833,176.0833,56.25,3.29
410,Granger,1,US,1629767280,81,41.7481,-86.1257,80.38,0.0
411,Jūnāgarh,96,IN,1629767173,83,19.8667,82.9333,77.23,3.13
412,Husavik,100,IS,1629767282,96,66.0449,-17.3389,57.56,2.19
413,Luanda,100,AO,1629767271,84,-8.8368,13.2343,71.28,10.33
414,Sawākin,96,SD,1629767285,47,19.1059,37.3321,92.5,4.47
415,Naples,0,IT,1629767286,83,40.8333,14.25,74.77,2.3
416,Sharjah city,0,AE,1629767110,54,25.3573,55.4033,93.18,5.75
417,Kiryat Gat,0,IL,1629767289,71,31.61,34.7642,77.4,1.01
418,Kyabé,100,TD,1629767290,90,9.4515,18.9449,73.17,1.07
419,Vila Franca do Campo,37,PT,1629767291,82,37.7167,-25.4333,75.61,9.1
420,Swift Current,5,CA,1629767106,58,50.2834,-107.8014,65.57,11.41
421,Pokhara,100,NP,1629767294,93,28.2333,83.9833,71.64,1.05
422,Ust'-Ilimsk,100,RU,1629767295,84,58.0006,102.6619,53.53,3.2
423,San Juan,100,AR,1629767297,29,-31.5375,-68.5364,50.61,8.88
424,Seminole,1,US,1629767298,85,28.7086,-81.2081,84.33,4.61
425,Chiredzi,0,ZW,1629767299,90,-21.05,31.6667,60.46,1.32
426,Beruwala,94,LK,1629767301,86,6.4788,79.9828,76.95,3.53
427,Grand-Santi,99,GF,1629767302,78,4.25,-54.3833,75.88,2.62
428,Ereymentau,5,KZ,1629767304,62,51.6199,73.1033,63.91,4.34
429,Tūkrah,0,LY,1629767305,70,32.5341,20.5791,78.94,10.07
430,São João da Barra,0,BR,1629767306,85,-21.6403,-41.0511,71.83,22.64
431,Bubaque,67,GW,1629767308,82,11.2833,-15.8333,79.32,13.06
432,Juan Lacaze,19,UY,1629767309,54,-34.4342,-57.4381,47.12,4.7
433,Pundaguitan,88,PH,1629767310,75,6.3711,126.1689,82.6,4.52
434,Samarai,90,PG,1629767312,81,-10.6167,150.6667,80.53,10.16
435,Dukat,99,RU,1629767313,80,62.55,155.55,57.88,6.93
436,Kahramanmaraş Province,0,TR,1629767314,69,38.0,37.0,68.63,5.28
437,Xining,4,CN,1629767316,71,36.6167,101.7667,53.49,2.46
438,Ternate,98,ID,1629767318,80,0.8,127.4,80.11,3.24
439,Arlit,6,NE,1629767320,16,18.7369,7.3853,95.07,8.97
440,Ishigaki,89,JP,1629767321,82,24.3448,124.1572,83.21,18.77
441,San Rafael,99,AR,1629767047,33,-34.6177,-68.3301,47.7,4.0
442,Ulaangom,2,MN,1629767324,42,49.9811,92.0667,59.97,1.79
443,Esso,100,RU,1629767325,59,55.9333,158.7,68.94,10.02
444,Rock Sound,93,BS,1629767326,78,24.9,-76.2,82.94,15.75
445,Teknāf,100,BD,1629767328,83,20.8624,92.3058,81.45,1.36
446,Lagoa,100,PT,1629767329,86,39.05,-27.9833,73.85,18.72
447,Machalí,99,CL,1629767330,92,-34.1833,-70.6667,44.89,3.33
448,Genhe,1,CN,1629767332,56,50.7833,121.5167,65.19,7.02
449,Jacareacanga,8,BR,1629767333,41,-6.2222,-57.7528,80.78,1.68
450,Roebourne,0,AU,1629767334,25,-20.7833,117.1333,74.95,19.33
451,Haines Junction,96,CA,1629767336,34,60.7522,-137.5108,62.29,7.92
452,Mossamedes,99,AO,1629767337,71,-15.1961,12.1522,63.63,10.65
453,Socuéllamos,12,ES,1629767338,61,39.2858,-2.7921,70.47,19.33
454,Poções,94,BR,1629767340,86,-14.5297,-40.3653,62.35,4.7
455,Kayes,98,ML,1629767341,88,14.0,-11.0,74.97,4.05
456,Salinópolis,13,BR,1629767343,80,-0.6136,-47.3561,79.45,11.45
457,Mount Gambier,78,AU,1629767344,75,-37.8333,140.7667,51.39,10.18
458,Codrington,100,AU,1629767345,75,-38.2667,141.9667,51.64,11.48
459,Marsá Maţrūḩ,0,EG,1629767347,70,31.3525,27.2453,75.9,3.2
460,Guerrero Negro,0,MX,1629767348,63,27.9769,-114.0611,74.86,15.59
461,Nurlat,100,RU,1629767349,85,54.4277,50.8051,62.76,10.63
462,Pierre,1,US,1629767351,55,44.3683,-100.351,81.46,19.13
463,North Platte,1,US,1629767352,63,41.1239,-100.7654,89.26,3.0
464,Ulladulla,100,AU,1629767353,94,-35.35,150.4667,49.77,20.76
465,Turaif,0,SA,1629767356,32,31.6725,38.6637,80.35,8.7
466,Brandon,1,US,1629767357,91,27.9378,-82.2859,84.85,0.0
467,Te Anau,100,NZ,1629767359,89,-45.4167,167.7167,53.08,7.87
468,Sulangan,100,PH,1629767360,77,11.1373,123.7228,80.65,6.73
469,Nikolayevka,100,RU,1629767361,90,53.1257,47.2041,60.46,13.31
470,Qui Nhon,100,VN,1629767306,68,13.7667,109.2333,83.64,2.93
471,Pringsewu,12,ID,1629767364,85,-5.3582,104.9744,77.86,2.28
472,Suluktu,0,KG,1629767365,29,39.9337,69.57,65.68,6.31
473,Māngrol,75,IN,1629767367,82,21.1167,70.1167,80.82,10.02
474,São José da Coroa Grande,63,BR,1629767368,88,-8.8978,-35.1478,73.6,8.86
475,Yerbogachën,71,RU,1629767369,70,61.2767,108.0108,55.94,6.78
476,Soure,74,BR,1629767371,82,-0.7167,-48.5233,79.45,12.01
477,Brigantine,1,US,1629767245,87,39.4101,-74.3646,80.8,4.61
478,Boende,10,CD,1629767373,97,-0.2167,20.8667,70.09,2.26
479,Fare,0,PF,1629767375,78,-16.7,-151.0167,78.46,13.2
480,Palm Valley,100,US,1629767376,88,30.1775,-81.3876,81.05,2.53
481,Oodweyne,100,SO,1629767377,54,9.4092,45.064,74.53,15.99
482,Hefei,100,CN,1629767379,96,31.8639,117.2808,72.86,5.79
483,Chara,100,RU,1629767380,61,56.9064,118.2631,58.73,5.61
484,Solhan,7,TR,1629767382,49,38.9634,41.0293,66.02,7.99
485,Kumano,100,JP,1629767383,91,34.3442,132.5894,79.72,13.85
486,South Kazakhstan Region,0,KZ,1629767384,26,43.0,68.0,76.66,5.08
487,Seoul,100,KR,1629767128,97,37.5683,126.9778,80.11,5.91
488,Lima,90,PE,1629767134,82,-12.0432,-77.0282,60.13,10.36
489,Malaṅgawā,96,NP,1629767388,88,26.8568,85.5581,80.31,3.33
490,Nipawin,90,CA,1629767389,51,53.3668,-104.0009,60.84,8.05
491,Arkhangelsk,75,RU,1629767392,93,64.5401,40.5433,44.71,4.47
492,Okhotsk,80,RU,1629767393,79,59.3833,143.3,62.06,3.58
493,Ohaeawai,99,NZ,1629767395,73,-35.3509,173.8822,59.81,7.36
494,Bosaso,68,SO,1629767396,47,11.2842,49.1816,89.96,22.08
495,Ushibukamachi,100,JP,1629767397,90,32.1906,130.0228,80.65,20.54
496,Dhārchula,97,IN,1629767399,97,29.85,80.5333,72.59,0.54
497,Caucayá,100,CO,1629767400,74,-0.1934,-74.7819,78.73,1.41
498,Namie,100,JP,1629767402,85,37.4833,141.0,85.71,3.8
499,Yumen,1,CN,1629767404,22,40.2833,97.2,64.13,15.43
500,Coronado,20,US,1629767406,73,32.6859,-117.1831,84.51,11.5
501,Tra Vinh,100,VN,1629767407,83,9.9347,106.3453,80.46,5.97
502,Puerto del Rosario,93,ES,1629767408,73,28.5004,-13.8627,73.15,17.27
503,Santa Cruz de la Sierra,0,BO,1629767410,65,-17.8,-63.1667,81.86,14.97
504,Manokwari,100,ID,1629767411,74,-0.8667,134.0833,80.98,2.8
505,Mabay,45,PH,1629767412,68,6.0577,124.4666,84.18,1.99
506,Nautla,100,MX,1629767414,87,20.2167,-96.7833,78.12,4.43
507,Pangnirtung,100,CA,1629767415,84,66.1451,-65.7125,44.38,8.93
508,Barcarena,72,BR,1629767257,81,-1.5058,-48.6258,78.85,11.61
509,Darnah,0,LY,1629767418,74,32.767,22.6367,78.31,19.39
510,Kota Kinabalu,20,MY,1629767419,89,5.9749,116.0724,78.78,1.14
511,Tari,15,NG,1629767421,79,12.4086,4.4914,76.37,6.55
512,Rome,75,US,1629767194,82,43.2128,-75.4557,75.94,0.0
513,Bilibino,5,RU,1629767423,46,68.0546,166.4372,47.8,9.31
514,Risør,100,NO,1629767425,72,58.7206,9.2342,55.29,4.23
515,Mpongwe,63,ZM,1629767426,62,-13.5091,28.155,66.15,5.95
516,Takaka,18,NZ,1629767427,57,-40.85,172.8,60.57,9.08
517,Vyshestebliyevskaya,0,RU,1629767430,70,45.1961,37.0181,70.21,9.06
518,Viljoenskroon,59,ZA,1629767431,69,-27.2084,26.9485,57.31,3.51
519,Jesús María,0,AR,1629767433,27,-30.9815,-64.0942,52.81,5.99
520,Hasaki,100,JP,1629767434,74,35.7333,140.8333,84.6,5.35
521,Harwich,5,GB,1629767435,94,51.9419,1.2844,62.19,4.0
522,Flinders,100,AU,1629767437,83,-34.5833,150.8552,52.18,8.01
523,Asbestovskiy,90,RU,1629767438,61,57.7557,61.3967,65.46,3.56
524,Mahon,0,ES,1629767440,60,39.8885,4.2658,75.76,14.97
525,Ngorongoro,0,TZ,1629767441,84,-3.2397,35.4875,46.74,7.56
526,Acarí,40,PE,1629767443,76,-15.4311,-74.6158,64.13,4.16
527,San Anselmo,1,US,1629767445,81,37.9747,-122.5616,76.98,3.0
528,Lokomotivnyy,0,RU,1629767446,42,53.0118,60.5684,69.03,4.41
