,City,Cloudiness,Country,Date,Humidity,Lat,Lng,Max Temp,Wind Speed
0,Padang,75,ID,1630195119,85,-0.9492,100.3543,73.45,3.09
1,San Francisco del Mar Viejo,83,MX,1630195214,70,16.2333,-94.65,84.15,5.32
2,Hermanus,40,ZA,1630195215,69,-34.4187,19.2345,45.9,5.88
3,Katsuura,6,JP,1630195215,79,35.1333,140.3,84.31,14.41
4,Atuona,27,PF,1630194933,75,-9.8,-139.0333,78.12,23.17
5,Leningradskiy,41,RU,1630195216,72,69.3833,178.4167,35.78,4.27
6,Pierre,82,US,1630195217,59,44.3683,-100.351,77.86,11.5
7,Kapaa,3,US,1630195217,62,22.0752,-159.319,83.48,3.0
8,Qaanaaq,100,GL,1630195218,95,77.484,-69.3632,35.74,4.05
9,Khatanga,100,RU,1630195219,98,71.9667,102.5,34.86,11.65
10,Saint-Philippe,100,RE,1630195219,89,-21.3585,55.7679,69.39,14.54
11,Avarua,14,CK,1630195220,57,-21.2078,-159.775,75.25,8.05
12,Butaritari,79,KI,1630195221,73,3.0707,172.7902,83.26,10.63
13,Carnarvon,58,AU,1630195222,45,-24.8667,113.6333,64.18,11.88
14,Hilo,8,US,1630195173,76,19.7297,-155.09,82.26,5.01
15,Ushuaia,20,AR,1630195002,70,-54.8,-68.3,40.66,27.63
16,Ostrovnoy,100,RU,1630195223,83,68.0531,39.5131,45.45,19.89
17,Port Elizabeth,53,ZA,1630195223,72,-33.918,25.5701,42.1,6.53
18,Alamosa,40,US,1630195224,17,37.4695,-105.87,82.38,6.91
19,Rikitea,1,PF,1630195225,74,-23.1203,-134.9692,73.8,19.55
20,Cape Town,0,ZA,1630195125,87,-33.9258,18.4232,46.11,6.91
21,Hong Kong,97,HK,1630194992,77,22.2855,114.1577,85.32,15.12
22,Kjøllefjord,99,NO,1630195226,75,70.9457,27.3465,45.1,8.43
23,Faanui,9,PF,1630195226,73,-16.4833,-151.75,79.45,5.17
24,Hobart,75,AU,1630195083,84,-42.8794,147.3294,48.25,1.99
25,Bredasdorp,67,ZA,1630195227,79,-34.5322,20.0403,37.27,4.97
26,Marsh Harbour,100,BS,1630195228,76,26.5412,-77.0636,83.52,11.63
27,Mariehamn,0,AX,1630195229,94,60.0973,19.9348,58.86,5.75
28,San Patricio,70,US,1630195229,59,28.017,-97.5169,90.32,11.52
29,Talnakh,100,RU,1630195230,96,69.4865,88.3972,37.87,8.63
30,Norman Wells,77,CA,1630195231,70,65.282,-126.8329,60.58,9.22
31,Adrar,16,MR,1630195231,26,20.5022,-10.0711,94.77,6.69
32,Adré,9,TD,1630195237,73,13.4667,22.2,76.08,5.55
33,Souillac,100,MU,1630195237,93,-20.5167,57.5167,71.37,22.01
34,Busselton,39,AU,1630195238,82,-33.65,115.3333,55.09,15.23
35,Albany,87,US,1630194625,91,42.6001,-73.9662,69.62,6.38
36,Hithadhoo,40,MV,1630195238,73,-0.6,73.0833,82.0,13.67
37,Serrinha,92,BR,1630195239,81,-11.6642,-39.0075,70.09,7.99
38,Vaini,100,TO,1630195240,65,-21.2,-175.2,69.51,14.63
39,Ribeira Grande,15,PT,1630195240,87,38.5167,-28.7,72.37,14.65
40,Nicoya,69,CR,1630195241,88,10.1483,-85.452,78.06,2.53
41,Bethel,79,US,1630195241,84,41.3712,-73.414,70.36,5.77
42,Mataura,100,NZ,1630195242,78,-46.1927,168.8643,48.47,3.2
43,Cabra,12,ES,1630195243,67,37.4725,-4.4421,74.64,3.15
44,Katherine,10,AU,1630195243,27,-14.4667,132.2667,77.32,5.75
45,Flinders,52,AU,1630195244,69,-34.5833,150.8552,56.17,1.01
46,Beringovskiy,99,RU,1630195245,83,63.05,179.3167,53.49,4.68
47,Syamzha,0,RU,1630195245,85,60.0158,41.0614,43.12,2.24
48,Tasiilaq,100,GL,1630195246,98,65.6145,-37.6368,46.56,3.4
49,Pachino,0,IT,1630195247,69,36.7186,15.0907,75.24,14.61
50,Saint Paul Harbor,26,US,1630195247,45,57.79,-152.4072,56.52,12.37
51,Atasū,58,KZ,1630195248,35,48.6814,71.6433,66.52,8.23
52,Longyearbyen,90,SJ,1630195249,87,78.2186,15.6401,39.04,13.8
53,Muroto-misakicho,2,JP,1630195249,74,33.2833,134.15,82.13,4.38
54,Petropavlovsk-Kamchatskiy,75,RU,1630195251,100,53.0452,158.6483,57.79,6.71
55,Bilibino,100,RU,1630195252,57,68.0546,166.4372,44.74,2.28
56,Xambioá,82,BR,1630195252,38,-6.4111,-48.5364,87.57,3.58
57,Dalnerechensk,75,RU,1630195253,89,45.9339,133.7225,61.0,3.69
58,Palamós,0,ES,1630195254,49,41.8484,3.1291,76.1,4.0
59,Muros,47,ES,1630195255,91,42.7762,-9.0603,68.5,4.34
60,Puerto Escondido,77,MX,1630195256,81,15.85,-97.0667,82.85,10.92
61,Iqaluit,100,CA,1630195256,95,63.7506,-68.5145,38.41,3.71
62,Kodinsk,4,RU,1630195256,73,58.6881,99.1844,57.51,0.83
63,Ambulu,25,ID,1630195257,79,-8.345,113.6058,76.73,1.03
64,Talara,60,PE,1630195258,89,-4.5772,-81.2719,64.74,12.64
65,Saskylakh,100,RU,1630195258,98,71.9167,114.0833,35.49,10.74
66,Broome,90,US,1630195259,83,42.2506,-75.833,75.02,1.01
67,Ponta do Sol,5,PT,1630195260,73,32.6667,-17.1,72.72,4.65
68,Biak,73,ID,1630195260,82,-0.9131,122.8766,77.56,3.31
69,Santa Elena,65,EC,1630195261,86,-2.2333,-80.85,70.05,8.66
70,Aitape,80,PG,1630195261,66,-3.1374,142.3475,85.39,5.08
71,Dimbokro,99,CI,1630195262,99,6.6451,-4.7048,72.86,4.81
72,Arraial do Cabo,51,BR,1630195262,89,-22.9661,-42.0278,69.87,9.69
73,Atherton,100,GB,1630195263,90,53.5237,-2.4935,58.91,1.01
74,Port-Gentil,93,GA,1630195263,87,-0.7193,8.7815,75.42,10.42
75,Mandalgovi,76,MN,1630195264,56,45.7625,106.2708,55.53,6.49
76,Yar-Sale,96,RU,1630195264,84,66.8333,70.8333,44.78,16.37
77,Mar del Plata,0,AR,1630195200,88,-38.0023,-57.5575,55.42,8.05
78,Bluff,95,NZ,1630195265,68,-46.6,168.3333,48.79,5.7
79,Tavricheskoye,100,RU,1630195265,86,54.5851,73.6395,51.71,9.4
80,Lebu,100,CL,1630195266,96,-37.6167,-73.65,53.53,10.25
81,Muravlenko,100,RU,1630195266,88,63.7898,74.523,45.81,10.29
82,Sept-Îles,75,CA,1630195022,73,50.2001,-66.3821,63.25,1.01
83,Portland,3,US,1630195076,35,45.5234,-122.6762,90.45,3.0
84,Porbandar,73,IN,1630195267,69,21.6422,69.6093,80.69,7.74
85,Puerto Ayora,88,EC,1630195267,91,-0.7393,-90.3518,68.56,1.99
86,Joshīmath,72,IN,1630195268,86,30.5667,79.5667,66.34,0.92
87,Kahului,5,US,1630195230,64,20.8947,-156.47,79.86,10.98
88,Chui,100,UY,1630195268,84,-33.6971,-53.4616,53.46,7.18
89,Livingstonia,0,MW,1630195269,56,-10.606,34.1063,62.29,2.53
90,Itarema,53,BR,1630195080,79,-2.9248,-39.9167,78.44,16.06
91,Sosnovka,5,RU,1630195269,81,56.255,51.2842,42.84,3.0
92,Terrace,53,CA,1630195232,79,54.5163,-128.6035,62.42,6.6
93,Yellowknife,52,CA,1630195235,52,62.456,-114.3525,65.1,9.33
94,Cheremushskiy,85,RU,1630195270,89,61.2731,47.2636,41.7,4.5
95,Puerto Quijarro,92,BO,1630195270,48,-17.7833,-57.7667,80.1,6.42
96,Pirapó,5,PY,1630195271,71,-26.85,-55.5333,63.46,3.0
97,Vao,0,NC,1630195271,77,-22.6667,167.4833,70.47,4.27
98,Jamestown,20,US,1630195123,80,42.097,-79.2353,78.44,1.01
99,Chapais,100,CA,1630195271,60,49.7834,-74.8492,60.58,4.18
100,Skreia,95,NO,1630195272,70,60.65,10.9333,54.14,2.53
101,Prince Rupert,94,CA,1630195262,93,54.3161,-130.3201,55.29,4.5
102,East London,59,ZA,1630195272,63,-33.0153,27.9116,51.78,10.69
103,Barrow,48,US,1630195173,63,71.2906,-156.7887,33.84,11.45
104,Lagoa,3,PT,1630195273,86,39.05,-27.9833,70.75,14.43
105,George Town,20,MY,1630195073,90,5.4112,100.3354,80.53,3.44
106,Port Jervis,100,US,1630195217,62,41.3751,-74.6927,70.32,4.59
107,Henties Bay,0,NA,1630195274,54,-22.116,14.2845,57.04,4.76
108,Bubog,87,PH,1630195274,79,10.7694,122.968,80.98,1.68
109,Port Hedland,95,AU,1630195274,83,-20.3167,118.5667,69.85,4.61
110,Mahébourg,100,MU,1630195275,89,-20.4081,57.7,71.26,16.98
111,Lethem,78,GY,1630195275,85,3.3803,-59.7968,77.72,6.02
112,Pangnirtung,62,CA,1630195275,73,66.1451,-65.7125,41.29,2.35
113,Severo-Kuril'sk,100,RU,1630195276,96,50.6789,156.125,54.55,6.51
114,Batī,68,ET,1630195276,61,11.1833,40.0167,68.83,9.04
115,Columbia,8,US,1630195164,72,34.0007,-81.0348,87.48,3.42
116,Lüderitz,0,NA,1630195277,39,-26.6481,15.1594,54.66,10.09
117,Port Alfred,79,ZA,1630195277,76,-33.5906,26.891,49.41,10.51
118,Nome,90,US,1630195278,93,64.5011,-165.4064,49.15,12.66
119,Geraldton,94,AU,1630195278,100,-28.7667,114.6,48.61,8.05
120,Punta Arenas,96,CL,1630195278,86,-53.15,-70.9167,37.58,10.85
121,Kruisfontein,37,ZA,1630195279,73,-34.0033,24.7314,39.88,6.93
122,Cape Canaveral,1,US,1630195275,85,28.4058,-80.6048,84.09,8.05
123,Gobabis,0,NA,1630195279,27,-22.45,18.9667,33.04,9.57
124,Chokurdakh,100,RU,1630195279,95,70.6333,147.9167,36.41,8.16
125,Banjar,58,ID,1630195280,81,-8.19,114.9675,78.66,3.74
126,Canavieiras,12,BR,1630195280,92,-15.675,-38.9472,69.55,4.36
127,Waitati,95,NZ,1630195280,81,-45.75,170.5667,48.79,5.61
128,Japura,92,ID,1630195281,87,-0.3167,102.35,74.77,2.1
129,Kaniama,81,CD,1630195281,62,-7.5667,24.1833,73.62,2.35
130,Dhing,100,IN,1630195282,95,26.4667,92.4667,74.07,5.99
131,Ilhabela,100,BR,1630195282,95,-23.7781,-45.3581,67.42,3.83
132,Laguna,90,US,1630195282,18,38.421,-121.4238,105.06,1.01
133,Lodwar,39,KE,1630195283,36,3.1191,35.5973,82.78,9.35
134,Nikolskoye,20,RU,1630195283,87,59.7035,30.7861,60.69,5.03
135,Ribas do Rio Pardo,99,BR,1630195284,69,-20.4431,-53.7592,71.56,11.52
136,Barvinkove,37,UA,1630195284,54,48.9097,37.0205,70.41,6.51
137,Arlit,56,NE,1630195284,20,18.7369,7.3853,96.76,2.21
138,Dikson,100,RU,1630195285,84,73.5069,80.5464,39.16,21.97
139,Richards Bay,100,ZA,1630195285,69,-28.783,32.0377,55.0,13.6
140,Newport,33,GB,1630195266,86,51.5877,-2.9984,60.91,5.19
141,Tchaourou,81,BJ,1630195285,96,8.8865,2.5975,72.09,3.69
142,Severodvinsk,38,RU,1630195286,90,64.5635,39.8302,46.51,8.81
143,Dingle,79,PH,1630195286,82,10.9995,122.6711,80.62,1.68
144,Hervey Bay,7,AU,1630195287,77,-25.2986,152.8535,77.04,4.85
145,Myaundzha,12,RU,1630195287,57,63.0494,147.1858,50.97,4.23
146,Saint-Paul-lès-Dax,0,FR,1630195287,59,43.7272,-1.0516,64.45,5.75
147,Bow Island,7,CA,1630195288,22,49.8668,-111.3684,73.62,5.37
148,Port Blair,100,IN,1630195151,85,11.6667,92.75,80.96,9.01
149,Along,100,IN,1630195288,99,28.1667,94.7667,71.58,1.12
150,Lianran,99,CN,1630195288,95,24.9227,102.485,62.04,2.42
151,Alanya,0,TR,1630195218,53,36.5438,31.9998,79.43,2.26
152,Thompson,75,CA,1630195152,59,55.7435,-97.8558,66.36,4.61
153,Namie,33,JP,1630195289,61,37.4833,141.0,84.78,4.16
154,Kondinskoye,52,RU,1630195289,72,59.6481,67.41,41.83,5.68
155,Shenjiamen,2,CN,1630195290,85,29.9576,122.298,81.93,15.35
156,Natal,97,BR,1630195290,82,-5.795,-35.2094,76.33,12.73
157,Martil,1,MA,1630195290,83,35.6166,-5.2752,73.47,11.54
158,Anadyr,40,RU,1630195270,87,64.75,177.4833,52.3,13.42
159,Slatina,95,RO,1630195291,91,44.4333,24.3667,64.71,9.78
160,Belaya Gora,100,RU,1630195291,72,68.5333,146.4167,45.28,6.2
161,Tevaitoa,8,PF,1630195292,73,-16.7833,-151.5,79.32,6.73
162,Medicine Hat,12,CA,1630195204,37,50.0501,-110.6683,74.84,1.99
163,Shache,100,CN,1630195292,36,38.4167,77.2406,73.24,6.15
164,Villarrica,74,PY,1630195293,55,-25.75,-56.4333,72.55,3.29
165,Fort Walton Beach,97,US,1630195103,79,30.4058,-86.6188,87.98,8.99
166,Bagdarin,7,RU,1630195293,68,54.4333,113.6,57.2,0.54
167,Angoche,0,MZ,1630195294,87,-16.2325,39.9086,68.41,6.76
168,Coquimbo,0,CL,1630195294,74,-29.9533,-71.3436,58.26,3.0
169,Port Hardy,90,CA,1630195233,100,50.6996,-127.4199,59.18,0.0
170,Yangi Marg`ilon,12,UZ,1630195295,31,40.4272,71.7189,74.12,6.91
171,Manokwari,81,ID,1630195295,71,-0.8667,134.0833,81.3,2.19
172,Hualmay,43,PE,1630195295,82,-11.0964,-77.6139,63.34,10.92
173,Ayyampettāi,100,IN,1630195296,72,10.9014,79.1798,79.18,14.41
174,Benicarló,46,ES,1630195296,77,40.4165,0.4271,75.25,4.68
175,Ola,99,RU,1630195297,80,59.5833,151.2833,57.87,1.28
176,Umluj,1,SA,1630195297,76,25.0213,37.2685,85.57,9.06
177,Tabou,99,CI,1630195297,87,4.423,-7.3528,76.28,10.31
178,Hasaki,0,JP,1630195298,80,35.7333,140.8333,84.6,15.61
179,Cabo San Lucas,40,MX,1630195201,73,22.8909,-109.9124,92.5,9.73
180,Castro,100,BR,1630195298,98,-24.7911,-50.0119,54.9,8.5
181,Nishihara,40,JP,1630195298,74,26.1842,127.7558,85.28,10.36
182,Hamilton,21,US,1630195299,76,39.1834,-84.5333,86.65,2.39
183,Bengkulu,100,ID,1630195299,85,-3.8004,102.2655,75.29,2.93
184,Haines Junction,100,CA,1630195300,97,60.7522,-137.5108,43.16,3.78
185,Presidencia Roque Sáenz Peña,0,AR,1630195300,54,-26.7852,-60.4388,66.24,6.15
186,Halmstad,75,SE,1630195300,90,56.6745,12.8568,60.91,13.8
187,Wismar,100,DE,1630195301,97,53.9,11.4667,59.25,7.0
188,Torbay,90,CA,1630195301,92,47.6666,-52.7314,54.68,21.85
189,Diffa,71,NE,1630195301,66,13.3154,12.6113,80.91,12.57
190,Praia da Vitória,14,PT,1630195302,95,38.7333,-27.0667,72.75,9.24
191,Bahía Blanca,76,AR,1630195276,41,-38.7196,-62.2724,56.07,5.26
192,Grand Island,1,US,1630195302,55,40.925,-98.342,92.19,19.57
193,Northam,5,GB,1630195303,83,51.0333,-4.2167,57.38,2.39
194,Kaitangata,100,NZ,1630195303,73,-46.2817,169.8464,48.67,5.7
195,New Norfolk,99,AU,1630195303,80,-42.7826,147.0587,47.91,3.8
196,Tiksi,100,RU,1630195304,97,71.6872,128.8694,36.93,16.15
197,Weihe,100,CN,1630195304,94,32.9952,105.3247,61.43,2.1
198,Fairbanks,64,US,1630195185,67,64.8378,-147.7164,50.02,3.0
199,Mossamedes,9,AO,1630195304,88,-15.1961,12.1522,64.04,5.44
200,Lompoc,11,US,1630195251,64,34.6391,-120.4579,93.34,4.0
201,Bonthe,100,SL,1630195305,89,7.5264,-12.505,77.2,6.11
202,Udarnyy,5,RU,1630195305,57,54.3409,42.8611,51.96,5.44
203,Deloraine,100,AU,1630195306,89,-41.5333,146.6667,44.71,1.01
204,Porto-Novo,94,BJ,1630195306,92,6.4965,2.6036,75.94,6.06
205,Huilong,97,CN,1630195306,87,31.8111,121.655,88.03,5.79
206,Viedma,100,AR,1630195307,36,-40.8135,-62.9967,54.36,7.63
207,Tuktoyaktuk,70,CA,1630195307,77,69.4541,-133.0374,50.22,6.67
208,Pevek,59,RU,1630195307,77,69.7008,170.3133,33.01,12.01
209,Pareora,100,NZ,1630195308,84,-44.4871,171.2132,50.32,11.54
210,Bariloche,100,AR,1630195308,99,-41.1456,-71.3082,38.43,4.43
211,Champerico,74,GT,1630195308,78,14.3,-91.9167,84.34,6.31
212,Sitka,29,US,1630195309,70,57.0531,-135.33,56.61,8.57
213,Salisbury,64,GB,1630195175,91,51.0693,-1.7957,58.48,5.68
214,Sibolga,100,ID,1630195309,75,1.7427,98.7792,76.39,3.13
215,Mirny,51,RU,1630195310,61,62.5353,113.9611,59.34,7.2
216,Mizdah,8,LY,1630195310,41,31.4451,12.9801,77.04,7.49
217,Shelburne,93,CA,1630195267,78,44.0787,-80.2041,70.84,3.22
218,Podor,100,MR,1630195310,61,16.6527,-14.9587,86.41,12.17
219,Tulun,75,RU,1630195311,82,54.5611,100.5792,55.13,3.15
220,Plácido de Castro,74,BR,1630195311,45,-10.3353,-67.1856,82.47,1.7
221,Brownsville,95,US,1630195312,70,25.9018,-97.4975,90.09,5.01
222,Dengzhou,100,CN,1630195312,82,37.8086,120.7508,70.12,8.05
223,Caravelas,13,BR,1630195312,81,-17.7125,-39.2481,71.89,8.34
224,Denpasar,40,ID,1630195313,94,-8.65,115.2167,78.46,4.61
225,Ambon City,40,ID,1630195313,78,-3.6954,128.1814,82.54,5.75
226,Thai Binh,37,VN,1630195313,87,20.45,106.3333,77.0,5.48
227,Makkah al Mukarramah,44,SA,1630195314,34,21.4267,39.8261,91.24,4.23
228,Aksu,99,CN,1630195314,48,41.1231,80.2644,68.13,5.75
229,Sistranda,0,NO,1630195314,79,63.7256,8.834,52.9,2.17
230,Palauig,96,PH,1630195315,71,15.435,119.9045,83.8,0.89
231,Tonota,0,BW,1630195315,14,-21.4833,27.4833,51.96,11.1
232,Keti Bandar,92,PK,1630195315,73,24.1447,67.4497,80.31,10.78
233,Bontang,100,ID,1630195316,92,0.1333,117.5,74.84,2.39
234,Codrington,70,AU,1630195316,83,-38.2667,141.9667,52.16,9.64
235,Bowen,91,AU,1630195196,69,-20.0167,148.2333,75.42,6.71
236,Balaipungut,46,ID,1630195317,96,1.05,101.2833,75.61,1.19
237,Moose Jaw,93,CA,1630195291,51,50.4001,-105.5344,64.65,7.38
238,Kuril'sk,0,RU,1630195317,79,45.2333,147.8833,64.56,12.21
239,Gao,23,ML,1630195309,39,16.6362,1.637,92.34,7.67
240,Ellensburg,6,US,1630195318,28,46.9965,-120.5479,84.22,4.0
241,Sola,28,VU,1630195318,66,-13.8833,167.55,78.37,19.19
242,Verkhniye Kigi,12,RU,1630195318,80,55.4083,58.6044,40.24,2.73
243,Ahipara,58,NZ,1630195319,81,-35.1667,173.1667,61.07,11.72
244,Virginia Beach,1,US,1630195319,80,36.8529,-75.978,86.02,6.2
245,Burns Lake,74,CA,1630195140,50,54.2331,-125.7533,65.62,11.14
246,Saint George,0,US,1630195053,9,37.1041,-113.5841,105.39,1.01
247,Blythe,14,US,1630195257,20,33.6103,-114.5964,110.03,11.21
248,Samaná,4,DO,1630195217,85,19.2056,-69.3369,80.06,8.52
249,Shimoda,0,JP,1630195320,72,34.6667,138.95,84.47,11.34
250,La Carlota,58,PH,1630195321,74,10.4233,122.9208,81.05,2.13
251,Prainha,43,BR,1630195321,67,-1.8,-53.48,81.55,5.61
252,Ilulissat,71,GL,1630195321,70,69.2167,-51.1,39.22,6.91
253,Yulara,0,AU,1630195322,26,-25.2406,130.9889,59.58,9.44
254,Aksarka,100,RU,1630195322,73,66.5606,67.7975,47.75,16.06
255,Assiut,0,EG,1630195322,35,27.181,31.1837,84.92,14.94
256,Victor Harbor,3,AU,1630195252,77,-35.5667,138.6167,55.9,1.01
257,Guerrero Negro,23,MX,1630195323,66,27.9769,-114.0611,79.52,16.13
258,Cidreira,0,BR,1630195323,78,-30.1811,-50.2056,60.51,18.57
259,Sakakah,21,SA,1630195323,13,29.9697,40.2064,91.4,9.1
260,Thinadhoo,69,MV,1630195324,71,0.5333,72.9333,82.44,14.83
261,Rio Pardo de Minas,86,BR,1630195324,78,-15.6097,-42.5397,65.7,6.02
262,Hongjiang,99,CN,1630195325,88,27.11,109.9956,75.96,2.66
263,Bambous Virieux,100,MU,1630195325,90,-20.3428,57.7575,71.22,19.04
264,Eyl,99,SO,1630195325,80,7.9803,49.8164,76.15,25.61
265,Mwingi,10,KE,1630195326,76,-0.9344,38.0601,62.51,3.87
266,Hofn,100,IS,1630195326,71,64.2539,-15.2082,54.41,9.44
267,Cherskiy,100,RU,1630195326,51,68.75,161.3,43.25,9.84
268,Meridian,1,US,1630195095,20,43.6121,-116.3915,85.78,1.01
269,Kamsack,100,CA,1630195327,79,51.5667,-101.9009,59.5,11.99
270,Yokadouma,100,CM,1630195327,99,3.5167,15.05,68.25,2.1
271,Pisco,43,PE,1630195328,84,-13.7,-76.2167,62.02,2.75
272,Ponta Delgada,20,PT,1630195328,83,37.7333,-25.6667,74.12,19.57
273,Rēzekne,96,LV,1630195329,98,56.5,27.3167,54.68,5.68
274,Thunder Bay,99,CA,1630195329,86,48.4001,-89.3168,72.0,1.99
275,Dunedin,98,NZ,1630195076,76,-45.8742,170.5036,49.8,1.99
276,Lavrentiya,100,RU,1630195329,87,65.5833,-171.0,42.15,7.23
277,Innisfail,82,AU,1630195330,75,-17.5333,146.0333,77.02,5.41
278,Esperance,100,AU,1630195330,74,-33.8667,121.9,55.76,15.64
279,Poconé,87,BR,1630195331,26,-16.2567,-56.6228,87.15,3.42
280,Xilitla,100,MX,1630195331,83,21.3333,-98.9667,76.01,3.02
281,Kendari,100,ID,1630195332,90,-3.945,122.4989,76.01,2.62
282,Bandarbeyla,95,SO,1630195332,80,9.4942,50.8122,76.73,32.26
283,Pryazha,24,RU,1630195332,87,61.6926,33.6216,45.16,2.82
284,Mitsamiouli,0,KM,1630195333,63,-11.3847,43.2844,75.54,7.11
285,Necochea,83,AR,1630195333,71,-38.5473,-58.7368,50.04,8.61
286,La Joya,100,MX,1630195333,91,18.6667,-99.4667,71.19,1.32
287,Lithakia,0,GR,1630195334,68,37.7167,20.8333,69.17,8.5
288,Mayo,90,US,1630195334,87,38.8876,-76.5119,83.12,15.01
289,Moorhead,40,US,1630195140,83,46.8739,-96.7676,72.95,1.01
290,Dali,100,CN,1630195335,94,25.7,100.1833,61.83,3.44
291,That Phanom,100,TH,1630195335,89,16.9364,104.7104,75.74,3.18
292,Amlapura,81,ID,1630195335,85,-8.45,115.6167,77.88,6.24
293,Tautira,24,PF,1630195336,78,-17.7333,-149.15,77.02,11.74
294,Fortuna,1,US,1630195336,76,40.5982,-124.1573,66.33,12.66
295,Mount Isa,0,AU,1630195266,12,-20.7333,139.5,74.97,0.0
296,Bosaso,84,SO,1630195337,37,11.2842,49.1816,93.51,21.68
297,Merrill,1,US,1630195337,75,45.1805,-89.6835,82.17,4.61
298,Kashira,44,RU,1630195337,66,54.8444,38.1669,57.54,8.81
299,Qui Nhon,100,VN,1630195338,87,13.7667,109.2333,78.64,5.17
300,Tucumcari,75,US,1630195338,27,35.1717,-103.725,89.44,12.66
301,Muyezerskiy,2,RU,1630195338,81,63.9333,31.65,46.51,3.27
302,Ishurdi,99,BD,1630195339,93,24.1333,89.0833,78.58,5.57
303,Clyde River,98,CA,1630195339,80,70.4692,-68.5914,37.96,6.06
304,Mahuta,1,TZ,1630195340,97,-10.8667,39.45,60.01,1.05
305,Ust'-Kulom,100,RU,1630195340,80,61.6864,53.6902,42.96,5.03
306,Vila Franca do Campo,64,PT,1630195340,86,37.7167,-25.4333,73.81,14.76
307,Laas,80,IT,1630195341,90,46.6166,10.7002,51.03,6.67
308,Orlik,84,RU,1630195341,71,52.5178,99.825,52.68,1.9
309,Mareeba,53,AU,1630195341,71,-17.0,145.4333,79.48,5.48
310,Kansanshi,78,ZM,1630195272,34,-12.0951,26.4273,67.33,1.99
311,Road Town,100,VG,1630195256,79,18.4167,-64.6167,83.19,17.36
312,Alofi,72,NU,1630195342,58,-19.0595,-169.9187,73.92,16.26
313,São Filipe,99,CV,1630195342,82,14.8961,-24.4956,76.17,2.48
314,Gold Coast,0,AU,1630195165,52,-28.0,153.4333,71.19,4.61
315,Ţahţā,0,EG,1630195343,25,26.7693,31.5021,84.52,11.12
316,Smithers,40,CA,1630195125,72,54.7804,-127.1743,64.72,4.61
317,Tagāb,11,AF,1630195343,31,34.855,69.6492,68.72,6.02
318,Airai,31,TL,1630195344,55,-8.9266,125.4092,67.98,4.16
319,Uruçuí,42,BR,1630195344,42,-7.2294,-44.5561,82.8,6.26
320,Provideniya,100,RU,1630195345,95,64.3833,-173.3,48.6,1.9
321,Juru,20,MY,1630195345,89,5.312,100.4423,80.55,0.0
322,Oyem,100,GA,1630195345,99,1.5995,11.5793,67.57,2.8
323,Menongue,0,AO,1630195346,31,-14.6585,17.691,64.74,8.75
324,Kanigoro,80,ID,1630195346,81,-8.13,112.219,75.87,6.82
325,Lima Duarte,85,BR,1630195346,95,-21.8425,-43.7931,56.26,3.15
326,Taoudenni,33,ML,1630195091,18,22.6783,-3.9836,100.72,10.71
327,Nyzhni Sirohozy,95,UA,1630195347,54,46.8484,34.3804,73.67,7.09
328,Hōjō,1,JP,1630195347,78,33.9766,132.7777,80.91,8.86
329,Klaksvík,87,FO,1630195348,89,62.2266,-6.589,50.92,10.63
330,Tessalit,52,ML,1630195348,23,20.1986,1.0114,92.55,3.76
331,Kasungu,0,MW,1630195348,43,-13.0333,33.4833,65.59,5.08
332,Coahuayana Viejo,100,MX,1630195349,97,18.7333,-103.6833,78.28,7.31
333,Tilichiki,100,RU,1630195349,86,60.4667,166.1,55.58,4.25
334,Rio Verde de Mato Grosso,98,BR,1630195350,51,-18.9181,-54.8442,77.56,10.92
335,Pirdop,23,BG,1630195350,94,42.7,24.1833,63.68,3.91
336,Katangli,100,RU,1630195350,97,51.7102,143.2326,54.45,7.43
337,Ciudad Bolivar,91,VE,1630195351,95,8.1222,-63.5497,74.98,11.59
338,Sharan,10,RU,1630195351,77,54.8167,54.0,44.51,6.96
339,Madimba,0,TZ,1630195351,90,-10.4,40.3333,68.74,5.99
340,Salalah,100,OM,1630195352,96,17.0151,54.0924,76.77,10.74
341,Kiryat Gat,0,IL,1630195352,79,31.61,34.7642,79.48,2.57
342,Tsimmerbude,99,RU,1630195352,93,54.675,20.1347,60.85,6.93
343,Vila Velha,14,BR,1630195353,84,-20.3297,-40.2925,71.1,5.68
344,Tyumentsevo,26,RU,1630195353,57,53.3224,81.498,60.76,4.52
345,Paamiut,99,GL,1630195353,83,61.994,-49.6678,45.99,4.74
346,Phan Thiet,97,VN,1630195194,86,10.9333,108.1,77.4,3.74
347,Waipawa,90,NZ,1630195354,81,-41.4122,175.5153,54.45,2.1
348,Korla,72,CN,1630195354,33,41.7597,86.1469,73.26,4.47
349,Chabahar,57,IR,1630195355,83,25.2919,60.643,78.49,11.12
350,San Policarpo,100,PH,1630195355,84,12.1791,125.5072,80.49,4.45
351,Leiyang,81,CN,1630195355,70,26.4024,112.8591,80.87,4.18
352,Hay River,80,CA,1630195356,51,60.8156,-115.7999,68.47,5.7
353,Kieta,98,PG,1630195356,69,-6.2167,155.6333,84.11,6.71
354,Turaif,2,SA,1630195356,24,31.6725,38.6637,87.04,10.0
355,Snezhnogorsk,64,RU,1630195357,79,69.1933,33.2531,38.98,8.99
356,Cayenne,0,GF,1630195209,81,4.9333,-52.3333,83.08,4.0
357,Mandera,2,KE,1630195357,52,3.9366,41.867,74.52,15.46
358,San Angelo,40,US,1630195358,48,31.4638,-100.437,89.55,3.0
359,Solnechnyy,100,RU,1630195358,92,50.7214,136.6319,56.16,4.07
360,Havøysund,99,NO,1630195358,70,70.9963,24.6622,47.28,6.02
361,Tuatapere,100,NZ,1630195359,77,-46.1333,167.6833,48.81,4.54
362,Redlands,1,US,1630195359,20,34.0556,-117.1825,108.27,5.01
363,Mahibadhoo,100,MV,1630195360,76,3.7833,72.9667,82.44,17.2
364,Westport,75,US,1630195169,83,41.1415,-73.3579,71.74,1.01
365,Berlevåg,100,NO,1630195360,77,70.8578,29.0864,45.43,12.8
366,Imbituba,57,BR,1630195361,82,-28.24,-48.6703,58.89,5.41
367,Benghazi,0,LY,1630195361,73,32.1167,20.0667,79.88,9.26
368,Jiexiu,16,CN,1630195361,79,37.0244,111.9125,67.68,5.3
369,Jalu,1,LY,1630195362,24,29.0331,21.5482,90.21,9.28
370,Vestmannaeyjar,99,IS,1630195362,86,63.4427,-20.2734,53.04,12.95
371,Kuah,100,MY,1630195362,74,6.3265,99.8432,81.99,1.1
372,Kingsville,1,US,1630195363,63,27.5159,-97.8561,88.48,3.0
373,Emerald,5,AU,1630195363,53,-23.5333,148.1667,76.73,9.91
374,Aykhal,99,RU,1630195363,67,66.0,111.5,43.48,10.11
375,Río Gallegos,100,AR,1630195364,78,-51.6226,-69.2181,41.05,13.69
376,Ramnagar,4,IN,1630195364,84,29.4,79.1167,73.49,2.62
377,Isangel,9,VU,1630195364,60,-19.55,169.2667,78.26,7.52
378,Santiago del Estero,16,AR,1630195365,29,-27.7951,-64.2615,64.8,6.08
379,Morón,24,AR,1630195365,72,-34.6534,-58.6198,60.98,4.72
380,San Quintín,15,MX,1630195366,75,30.4833,-115.95,74.88,13.44
381,Mazyr,59,BY,1630195366,86,52.0495,29.2456,53.19,4.7
382,Dinguiraye,97,GN,1630195366,94,11.3,-10.7167,71.42,4.05
383,North Bend,1,US,1630195367,72,43.4065,-124.2243,81.25,28.77
384,Marzuq,66,YE,1630195367,44,14.4,46.4667,82.44,1.83
385,Altay,14,CN,1630195367,37,47.8667,88.1167,61.88,4.45
386,Saint Stephen,2,GB,1630195232,82,50.3333,-4.9,60.75,4.61
387,Inuvik,72,CA,1630195368,60,68.3499,-133.7218,57.9,2.51
388,Twentynine Palms,0,US,1630195280,16,34.1356,-116.0542,106.14,7.0
389,Örnsköldsvik,83,SE,1630195368,100,63.2909,18.7153,45.55,5.75
390,Monroe,23,US,1630195116,86,43.1501,-77.6831,80.51,3.44
391,Jiazi,93,CN,1630195369,77,22.8779,116.067,82.56,6.93
392,Grindavik,90,IS,1630195369,82,63.8424,-22.4338,52.27,20.71
393,Hambantota,87,LK,1630195369,81,6.1241,81.1185,79.36,18.12
394,Itoman,40,JP,1630195370,74,26.1247,127.6694,86.02,10.36
395,Port Macquarie,0,AU,1630195370,42,-31.4333,152.9167,62.47,4.59
396,Te Anau,100,NZ,1630195370,95,-45.4167,167.7167,45.84,2.66
397,Nadym,100,RU,1630195371,87,65.5333,72.5167,45.37,16.08
398,Azul,14,AR,1630195371,74,-36.777,-59.8585,51.8,7.27
399,Bama,99,NG,1630195372,82,11.5221,13.6856,75.24,8.25
400,Tual,53,ID,1630195372,82,-5.6667,132.75,80.38,17.2
401,Jinchang,69,CN,1630195372,48,38.4953,102.1739,62.49,2.37
402,Coxim,96,BR,1630195373,42,-18.5067,-54.76,82.17,7.76
403,Dezful,0,IR,1630195373,17,32.3811,48.4058,93.36,2.37
404,Pozo Colorado,94,PY,1630195374,82,-23.4923,-58.7972,66.72,2.71
405,Tomatlán,100,MX,1630195374,97,19.9333,-105.25,74.39,10.92
406,Natá,100,PA,1630195374,86,8.3333,-80.5167,78.87,3.04
407,Palma di Montechiaro,1,IT,1630195375,71,37.1926,13.765,74.62,6.13
408,Zhigansk,100,RU,1630195375,90,66.7697,123.3711,46.8,14.47
409,Outjo,0,NA,1630195375,16,-20.1167,16.15,50.67,16.24
410,Atar,57,MR,1630195376,33,20.5169,-13.0499,93.97,4.54
411,Rovaniemi,0,FI,1630195298,81,66.5,25.7167,49.41,5.75
412,Upernavik,79,GL,1630195376,71,72.7868,-56.1549,38.17,8.01
413,Impfondo,82,CG,1630195377,99,1.6381,18.0667,70.09,3.33
414,Liyang,97,CN,1630195377,93,29.7057,118.2862,77.5,0.89
415,Mackay,28,AU,1630195232,74,-21.15,149.2,79.05,2.48
416,Kundiawa,27,PG,1630195377,53,-6.0167,144.9667,77.31,1.45
417,Lavumisa,93,SZ,1630195378,60,-27.31,31.892,51.24,7.83
418,Bilma,19,NE,1630195378,19,18.6853,12.9164,95.81,4.85
419,Asău,99,RO,1630195379,96,46.4333,26.4,58.12,2.51
420,Moose Factory,100,CA,1630195379,85,51.2585,-80.6094,57.85,6.67
421,Byron Bay,0,AU,1630195379,41,-28.65,153.6167,72.05,1.3
422,Minot,75,US,1630195380,47,48.2325,-101.2963,73.62,8.99
423,Sinazongwe,0,ZM,1630195380,34,-17.2614,27.4618,75.78,17.76
424,Wanning,40,CN,1630195380,83,18.8003,110.3967,80.78,2.89
425,Broken Hill,24,AU,1630195381,56,-31.95,141.4333,53.33,13.4
426,Selikhino,99,RU,1630195381,88,50.3672,137.4996,59.13,5.21
427,Arandis,0,NA,1630195382,9,-22.4167,14.9667,60.28,27.22
428,Verāval,79,IN,1630195382,74,20.9,70.3667,80.47,8.14
429,Lima,58,PE,1630195356,88,-12.0432,-77.0282,59.14,6.33
430,Antofagasta,37,CL,1630195202,78,-23.65,-70.4,58.87,4.12
431,Yerbogachën,9,RU,1630195383,65,61.2767,108.0108,59.04,5.59
432,Sinnamary,47,GF,1630195384,90,5.3833,-52.95,79.29,12.39
433,Shuyskoye,0,RU,1630195384,85,59.3736,41.0305,43.32,1.43
434,Bairiki Village,40,KI,1630195384,70,1.3292,172.9752,87.8,9.22
435,Husum,100,DE,1630195385,91,54.4858,9.0524,57.97,10.78
436,Whitehorse,100,CA,1630195385,96,60.7161,-135.0538,51.03,3.24
437,Cockburn Town,12,TC,1630195302,83,21.4612,-71.1419,82.47,18.05
438,Pacific Grove,1,US,1630195386,75,36.6177,-121.9166,99.45,5.01
439,Coyhaique,100,CL,1630195386,96,-45.5752,-72.0662,39.7,3.65
440,Hauterive,4,FR,1630195386,93,46.0901,3.4459,54.75,0.98
441,Bagotville,0,AU,1630195387,37,-28.9833,153.4167,65.41,4.16
442,Nanortalik,45,GL,1630195387,72,60.1432,-45.2371,42.78,6.26
443,Takāb,0,IR,1630195387,37,36.4009,47.1133,66.43,5.46
444,Berbérati,100,CF,1630195388,99,4.2612,15.7922,67.95,2.44
445,Ewo,95,CG,1630195388,77,-0.8725,14.8206,75.76,5.7
446,Alindao,73,CF,1630195388,97,5.0267,21.2088,69.6,1.9
447,Okhotsk,100,RU,1630195389,60,59.3833,143.3,61.05,12.12
448,Aswān,0,EG,1630195389,17,24.0934,32.907,89.74,15.03
449,Luganville,57,VU,1630195389,69,-15.5333,167.1667,79.93,12.37
450,Sestri Levante,26,IT,1630195390,62,44.2732,9.3968,71.51,4.0
451,Friendly,20,US,1630195390,81,38.7518,-76.9786,83.34,6.91
452,Batemans Bay,73,AU,1630195391,66,-35.7167,150.1833,53.91,2.93
453,Magnor,61,SE,1630195391,86,59.9511,12.1996,54.5,4.32
454,Raja,98,SS,1630195391,99,8.4596,25.678,70.02,0.96
455,Guane,97,CU,1630195392,86,22.2025,-84.0875,79.81,13.4
456,Ayutla,100,MX,1630195392,98,20.1167,-104.3333,62.83,5.1
457,Kishtwār,95,IN,1630195392,82,33.3167,75.7667,60.98,3.62
458,Redmond,5,US,1630195202,49,47.674,-122.1215,81.79,1.01
459,Santa Cruz Cabrália,9,BR,1630195393,88,-16.2781,-39.0247,71.08,7.11
460,Aranos,0,NA,1630195393,29,-24.1333,19.1167,33.22,8.12
461,Esim,74,GH,1630195394,89,4.8699,-2.2405,75.96,9.6
462,Ayan,100,RU,1630195394,66,56.45,138.1667,53.33,14.92
463,Lipari,2,IT,1630195394,68,38.4674,14.954,79.54,11.36
464,Sādri,52,IN,1630195395,67,25.1833,73.4333,78.4,4.88
465,Jhānsi,78,IN,1630195395,79,25.4333,78.5833,81.21,2.3
466,Nemuro,3,JP,1630195396,82,43.3236,145.575,75.63,4.7
467,Pasni,91,PK,1630195396,80,25.2631,63.471,78.35,4.32
468,Tete,0,MZ,1630195283,31,-16.1564,33.5867,75.47,2.73
469,Catia La Mar,40,VE,1630195397,88,10.6038,-67.0303,75.4,2.3
470,Pitimbu,98,BR,1630195397,86,-7.4706,-34.8086,75.79,13.06
471,Pedersore,3,FI,1630195398,84,63.65,22.6833,51.89,6.13
472,Shetpe,2,KZ,1630195398,57,44.1667,52.1167,75.06,4.63
473,Øksfjord,82,NO,1630195398,84,70.2396,22.3479,47.32,3.13
474,Plakhtiyivka,68,UA,1630195399,65,46.1006,29.7217,67.41,10.54
475,Ixtapa,100,MX,1630195399,98,20.7,-105.2,75.92,17.6
476,Asse,51,BE,1630195399,88,50.9101,4.1984,59.18,8.3
477,Kavieng,100,PG,1630195400,70,-2.5744,150.7967,84.88,11.03
478,Rāwah,0,IQ,1630195400,16,34.4816,41.9093,90.34,10.13
479,Launceston,90,AU,1630195400,92,-41.45,147.1667,47.16,5.75
480,Deputatsky,100,RU,1630195401,76,69.3,139.9,41.16,5.19
481,Tadine,0,NC,1630195401,61,-21.55,167.8833,76.28,2.08
482,Andros,0,GR,1630195401,54,37.8333,24.9333,78.73,5.01
483,Bafoussam,97,CM,1630195402,96,5.4737,10.4179,60.04,2.62
484,Vardø,100,NO,1630195402,73,70.3705,31.1107,45.75,14.16
485,Panguna,97,PG,1630195402,62,-6.3164,155.4848,79.68,2.28
486,Matara,91,LK,1630195403,90,5.9485,80.5353,77.72,14.36
487,Voskresenskoye,0,RU,1630195403,71,56.8381,45.4317,43.18,1.92
488,Aripuanã,14,BR,1630195404,34,-9.1667,-60.6333,84.96,1.19
489,Severnyy,0,RU,1630195404,77,50.677,36.5532,64.44,4.47
490,Rocha,100,UY,1630195404,89,-34.4833,-54.3333,49.93,5.17
491,São José da Coroa Grande,59,BR,1630195405,84,-8.8978,-35.1478,74.66,8.16
492,Tiarei,21,PF,1630195405,79,-17.5333,-149.3333,77.02,9.98
493,Sovetskiy,99,RU,1630195405,71,61.3614,63.5842,48.94,4.85
494,Vershino-Darasunskiy,3,RU,1630195406,62,52.35,115.5167,56.08,2.13
495,Acapulco de Juárez,90,MX,1630195379,94,16.8634,-99.8901,78.62,2.3
496,Sur,3,OM,1630195406,67,22.5667,59.5289,81.79,9.48
497,Lárdos,0,GR,1630195407,72,36.0942,28.0157,78.62,10.92
498,Ust'-Ilimsk,37,RU,1630195407,60,58.0006,102.6619,60.26,3.18
499,Kambove,31,CD,1630195407,48,-10.8764,26.5969,67.87,3.36
500,Bulawayo,1,ZW,1630195408,12,-20.15,28.5833,56.08,14.92
501,Kholm,58,RU,1630195408,77,59.2667,32.85,54.28,5.86
502,Paita,88,PE,1630195408,84,-5.0892,-81.1144,65.86,14.2
503,Vestmanna,20,FO,1630195409,100,62.1564,-7.1664,49.12,4.61
504,Inverell,0,AU,1630195409,44,-29.7833,151.1167,63.1,3.0
505,Bubaque,99,GW,1630195409,81,11.2833,-15.8333,80.46,10.89
506,Voh,0,NC,1630195410,55,-20.9667,164.7,80.76,6.4
507,Kurumkan,69,RU,1630195410,65,54.3,110.3,59.77,2.57
508,Custoias,89,PT,1630195411,74,41.1053,-7.321,61.79,4.5
509,Warmbad,0,NA,1630195411,28,-28.45,18.7333,43.39,10.22
510,Makakilo City,75,US,1630195411,49,21.3469,-158.0858,86.32,3.44
511,San Cristobal,68,VE,1630195180,97,7.7669,-72.225,73.58,3.71
512,Cañaveral,95,HN,1630195412,94,14.9833,-88.0167,79.21,1.83
513,Egvekinot,100,RU,1630195412,80,66.3167,-179.1667,38.62,3.22
514,Dhidhdhoo,99,MV,1630195413,78,6.8833,73.1,81.72,18.68
515,Port Augusta,5,AU,1630195413,70,-32.5,137.7667,54.72,3.96
516,Okha,100,RU,1630195413,94,53.5739,142.9478,56.71,5.79
517,Borborema,94,BR,1630195414,65,-21.6197,-49.0736,68.47,9.84
518,Borzya,6,RU,1630195414,56,50.3833,116.5167,59.11,3.8
519,Madingou,65,CG,1630195414,73,-4.1536,13.55,77.09,4.41
520,Narón,100,ES,1630195415,81,43.5167,-8.1528,66.6,8.3
521,Odlābāri,100,IN,1630195415,94,26.8333,88.6167,74.79,2.08
522,Saint Anthony,1,US,1630195416,88,45.0205,-93.218,78.42,4.0
523,Casino,0,AU,1630195416,45,-28.8667,153.05,64.35,3.44
524,Mulegé,14,MX,1630195416,60,26.8833,-111.9833,89.22,11.48
525,Bazarnyy Karabulak,0,RU,1630195417,54,52.2683,46.4144,53.24,6.62
526,Tezu,100,IN,1630195417,97,27.9167,96.1667,72.16,2.48
527,Sakaraha,0,MG,1630195417,77,-22.9,44.5333,57.99,2.59
528,Verkhnevilyuysk,96,RU,1630195418,71,63.4453,120.3167,56.21,8.01
529,Çubuk,0,TR,1630195418,25,40.2386,33.0322,76.46,13.8
530,Gizo Government Station,77,SB,1630195419,74,-8.103,156.8419,82.26,6.96
531,Bela Vista,100,BR,1630195419,77,-22.1089,-56.5211,71.64,3.8
532,Verkhoyansk,100,RU,1630195419,82,67.5447,133.385,46.99,10.58
533,Qaqortoq,34,GL,1630195420,65,60.7167,-46.0333,43.3,0.65
534,Rawson,81,AR,1630195420,47,-43.3002,-65.1023,53.2,6.17
535,Turbat,99,PK,1630195420,81,26.0023,63.044,77.38,3.06
536,Fuerte,75,PH,1630195421,77,17.5381,120.3644,82.31,2.62
537,Jiuquan,60,CN,1630195421,30,39.7432,98.5174,62.98,3.13
538,Comodoro Rivadavia,0,AR,1630195422,47,-45.8667,-67.5,53.46,13.8
539,Hailar,39,CN,1630195422,68,49.2,119.7,57.96,6.58
540,Auki,100,SB,1630195422,67,-8.7676,160.7034,84.4,5.93
541,Aklavik,36,CA,1630195423,60,68.2191,-135.0107,57.87,3.65
542,Saint-Leu,93,RE,1630195423,84,-21.15,55.2833,68.86,1.1
543,Kirakira,92,SB,1630195423,62,-10.4544,161.9205,84.67,12.17
544,Taylor,1,US,1630195424,43,32.3001,-99.8337,91.72,1.01
545,Bend,1,US,1630195424,20,44.0582,-121.3153,82.49,1.99
546,Saint-François,0,FR,1630195424,92,46.4154,3.9054,54.41,2.3
547,Jacmel,15,HT,1630195425,84,18.2342,-72.5347,89.44,3.56
548,Constitución,62,CL,1630195425,81,-35.3333,-72.4167,53.92,9.04
549,Cabedelo,91,BR,1630195426,86,-6.9811,-34.8339,75.87,14.14
550,Haapsalu,25,EE,1630195426,93,58.9431,23.5414,60.91,8.68
551,Catherinas Lust,55,GY,1630195426,88,6.4,-57.6,78.19,6.78
552,Mēga,29,ET,1630195427,51,4.05,38.3,61.36,15.19
553,Siniscola,0,IT,1630195427,74,40.5719,9.6922,69.35,7.11
554,Zhuhai,40,CN,1630195427,89,22.2769,113.5678,84.7,1.14
555,La Asuncion,66,VE,1630195428,85,11.0333,-63.8628,80.26,13.6
556,Arman',94,RU,1630195428,74,59.7,150.1667,60.6,0.92
557,Kalāleh,0,IR,1630195429,67,37.3807,55.4916,78.19,3.06
558,Rumboci,100,BA,1630195429,99,43.8322,17.5011,50.86,4.45
559,Progreso,18,MX,1630195429,75,21.2833,-89.6667,88.11,7.72
560,Bafra,0,TR,1630195430,62,41.5678,35.9069,67.78,7.7
561,Avera,82,US,1630195430,76,33.194,-82.5271,84.67,4.97
562,General Roca,100,AR,1630195430,31,-39.0333,-67.5833,61.2,6.42
563,Bullhead City,20,US,1630195431,19,35.1478,-114.5683,113.11,11.5
564,Zhangjiakou Shi Xuanhua Qu,71,CN,1630195431,70,40.6103,115.0447,64.17,1.9
565,Narsaq,36,GL,1630195432,59,60.9167,-46.05,43.02,1.39
566,Tanabe,0,JP,1630195432,73,33.7333,135.3667,83.93,1.99
567,Bara,99,NG,1630195432,97,10.3744,10.7288,71.8,7.02
568,Arrondissement de Cognac,0,FR,1630195433,67,45.5,-0.25,60.4,6.91
569,Port Said,0,EG,1630195433,68,31.2565,32.2841,82.29,11.41
570,Faya,35,SA,1630195433,21,18.3851,42.4509,68.52,3.8
571,Heihe,67,CN,1630195434,74,50.2441,127.4902,52.38,5.79
572,Baza,6,ES,1630195434,47,37.4907,-2.7726,73.58,5.01
573,Hot Springs,1,US,1630195278,51,34.5037,-93.0552,89.56,8.05
574,Kloulklubed,100,PW,1630195435,88,7.0419,134.2556,79.3,20.04
575,Lakatoro,55,VU,1630195435,66,-16.0999,167.4164,80.19,12.3
576,Chipata,2,ZM,1630195435,32,-13.6333,32.65,67.19,5.26
577,Killybegs,68,IE,1630195436,93,54.6333,-8.45,59.45,5.75
578,Mehamn,100,NO,1630195436,78,71.0357,27.8492,44.92,10.13
579,Alyangula,50,AU,1630195437,45,-13.8483,136.4192,80.82,11.05
